index3,elevation,mindate,maxdate,latitude,station_name,datacoverage,id,elevationUnit,longitude,status,message
0,431.6,1940-05-01,2020-09-18,45.8679,"ALEXANDRIA CHANDLER FIELD, MN US",1,GHCND:USW00014910,METERS,-95.3941,,
1,334.7,1917-04-01,2020-09-18,45.38564,"ARTICHOKE LAKE 1 E, MN US",1,GHCND:USC00210287,METERS,-96.12578,,
2,313.9,1952-01-01,2020-09-08,45.3167,"BENSON, MN US",1,GHCND:USC00210667,METERS,-95.6166,,
3,298.1,1973-12-01,2020-09-19,45.59595,"BROWNS VALLEY, MN US",1,GHCND:USC00211063,METERS,-96.82841,,
4,296.3,1894-01-01,2010-12-31,46.09583,"CAMPBELL, MN US",1,GHCND:USC00211245,METERS,-96.40917,,
5,368.8,1916-02-01,2020-09-18,44.7184,"CANBY, MN US",1,GHCND:USC00211263,METERS,-96.2696,,
6,321.6,1893-07-01,2020-09-19,44.9318,"DAWSON, MN US",1,GHCND:USC00212038,METERS,-96.045,,
7,405.4,1940-05-01,1988-12-31,46.01083,"ELBOW LAKE, MN US",0.9742,GHCND:USC00212476,METERS,-95.87556,,
8,381,1893-01-01,2018-03-16,46.2919,"FERGUS FALLS, MN US",1,GHCND:USC00212768,METERS,-96.1172,,
9,365.2,1895-08-01,2018-10-31,45.6584,"GLENWOOD 2 WNW, MN US",1,GHCND:USC00213174,METERS,-95.4392,,
10,327.7,1940-05-01,2020-09-16,45.00236,"MADISON WWTP, MN US",1,GHCND:USC00214994,METERS,-96.16611,,
11,310.9,1893-08-01,2020-09-18,45.1219,"MILAN 1 NW, MN US",1,GHCND:USC00215400,METERS,-95.9269,,
12,301.8,1893-01-01,2020-09-13,44.9341,"MONTEVIDEO 1 SW, MN US",1,GHCND:USC00215563,METERS,-95.74597,,
13,347.5,1886-01-01,2020-07-26,45.5901,"MORRIS WEST CENTRAL RESEARCH AND OUTREACH CENTER, MN US",1,GHCND:USC00215638,METERS,-95.8745,,
14,299,1892-01-01,1983-03-31,45.3,"ORTONVILLE, MN US",0.4895,GHCND:USC00216224,METERS,-96.45,,
15,331,1971-06-01,2020-07-31,46.2154,"ORWELL DAM, MN US",1,GHCND:USC00216228,METERS,-96.178,,
16,411.2,1940-01-01,2020-09-19,46.4145,"OTTERTAIL, MN US",1,GHCND:USC00216276,METERS,-95.5464,,
17,395.9,1940-05-01,2020-07-25,46.569,"PELICAN RAPIDS, MN US",1,GHCND:USC00216405,METERS,-96.0894,,
18,367,1959-01-01,2020-07-31,46.4808,"ROTHSAY, MN US",1,GHCND:USC00217149,METERS,-96.2869,,
19,418.2,1893-08-01,2014-09-04,46.3938,"WADENA 3 S, MN US",1,GHCND:USC00218579,METERS,-95.1494,,
20,310.3,1914-05-01,2020-09-18,45.80808,"WHEATON, MN US",1,GHCND:USC00218907,METERS,-96.50419,,
21,59.1,1963-01-01,2020-08-30,34.025,"ARKANSAS POST, AR US",1,GHCND:USC00030240,METERS,-91.3444,,
22,61,1930-02-01,2020-08-31,34.3702,"SAINT CHARLES, AR US",1,GHCND:USC00036376,METERS,-91.1241,,
23,68,1890-08-01,2020-05-05,34.4763,"STUTTGART, AR US",1,GHCND:USC00036918,METERS,-91.538,,
24,60.4,1936-10-01,2020-09-18,34.4744,"STUTTGART 9 ESE, AR US",1,GHCND:USC00036920,METERS,-91.4172,,
25,467,1934-01-01,2020-09-19,45.70871,"WILLOW RESERVOIR, WI US",1,GHCND:USC00479236,METERS,-89.8483,,
26,100.6,1895-09-01,2020-09-19,35.5894,"BROWNSVILLE, TN US",1,GHCND:USC00401145,METERS,-89.2586,,
27,329.2,1958-02-01,2014-06-30,43.3708,"IDLEYLD PARK 4 NE, OR US",1,GHCND:USC00354126,METERS,-122.9652,,
28,1242.7,1978-01-01,2020-07-31,43.3597,"LEMOLO LAKE 3 NNW, OR US",1,GHCND:USC00354835,METERS,-122.2208,,
29,323.1,1955-03-01,2010-12-31,43.23306,"LITTLE RIVER, OR US",1,GHCND:USC00354939,METERS,-122.98722,,
30,121.9,1978-03-01,2020-07-31,43.3963,"SUTHERLIN 2 W, OR US",1,GHCND:USC00358260,METERS,-123.35989,,
31,627.9,1953-01-01,2020-09-18,43.275,"TOKETEE FALLS, OR US",1,GHCND:USC00358536,METERS,-122.4497,,
32,140.2,1950-12-01,2020-09-19,43.2827,"WINCHESTER, OR US",1,GHCND:USC00359461,METERS,-123.3536,,
33,139.9,1981-01-01,1989-06-30,43.28333,"WINCHESTER 3 W F STATION, OR US",0.9907,GHCND:USC00359464,METERS,-123.41667,,
34,1609.3,1980-06-15,2020-09-08,43.19,"DIAMOND LAKE, OR US",1,GHCND:USS0022F18S,METERS,-122.14,,
35,64,1995-03-01,1997-11-30,32.96667,"IMPERIAL SAND DUNES, CA US",0.9986,GHCND:USC00044227,METERS,-115.18333,,
36,1204,1893-01-01,2018-05-28,36.798,"INDEPENDENCE, CA US",1,GHCND:USC00044232,METERS,-118.2036,,
37,-6.4,1894-03-01,2020-09-15,33.7086,"INDIO FIRE STATION, CA US",1,GHCND:USC00044259,METERS,-116.2152,,
38,740.7,1940-11-01,2012-12-27,35.6513,"INYOKERN, CA US",1,GHCND:USC00044278,METERS,-117.8213,,
39,281,1935-01-01,2020-09-15,34.1472,"IRON MOUNTAIN, CA US",1,GHCND:USC00044297,METERS,-115.1219,,
40,1645.9,1948-08-01,2020-05-18,41.2683,"JESS VALLEY, CA US",1,GHCND:USC00044374,METERS,-120.2947,,
41,1284.7,1893-01-01,2020-09-15,33.0763,"JULIAN CDF, CA US",1,GHCND:USC00044412,METERS,-116.5925,,
42,609.6,1972-08-01,2020-07-31,38.8088,"KELSEY 1 N, CA US",1,GHCND:USC00044484,METERS,-120.8208,,
43,44.2,1902-01-01,2020-09-18,37.9566,"KENTFIELD, CA US",1,GHCND:USC00044500,METERS,-122.5447,,
44,154.8,1941-01-01,2010-12-31,36.0725,"KETTLEMAN STATION, CA US",1,GHCND:USC00044536,METERS,-120.08778,,
45,97.5,1902-01-01,2020-07-30,36.2069,"KING CITY, CA US",1,GHCND:USC00044555,METERS,-121.1377,,
46,8.5,1948-07-01,2010-12-31,41.57861,"KLAMATH, CA US",1,GHCND:USC00044577,METERS,-124.07472,,
47,470.9,1918-01-01,2011-02-28,34.2222,"LA CRESCENTA FC251C, CA US",1,GHCND:USC00044628,METERS,-118.2377,,
48,13.4,1928-01-01,2016-03-01,33.5453,"LAGUNA BEACH, CA US",1,GHCND:USC00044647,METERS,-117.7813,,
49,1586.5,1941-08-01,2011-11-01,34.2466,"LAKE ARROWHEAD, CA US",1,GHCND:USC00044671,METERS,-117.1883,,
50,210.3,1967-05-01,2020-07-31,32.8536,"LAKESIDE 2 E, CA US",1,GHCND:USC00044710,METERS,-116.8947,,
51,57,1975-08-01,2020-09-19,38.492,"LAKE SOLANO, CA US",1,GHCND:USC00044712,METERS,-122.0039,,
52,161.5,1899-01-01,2010-12-31,32.7675,"LA MESA, CA US",1,GHCND:USC00044735,METERS,-117.0233,,
53,1453.9,1959-10-01,2020-01-31,41.7019,"LAVA BEDS NAT MON, CA US",1,GHCND:USC00044838,METERS,-121.5011,,
54,1089.7,1948-07-01,2020-09-10,34.83328,"LEBEC, CA US",1,GHCND:USC00044863,METERS,-118.86497,,
55,487.7,1948-07-01,2010-12-31,34.07639,"LECHUZA PATROL STATION, CA US",1,GHCND:USC00044867,METERS,-118.88028,,
56,2071.7,1988-05-01,2020-09-17,37.9567,"LEE VINING, CA US",1,GHCND:USC00044881,METERS,-119.1194,,
57,156.4,1899-01-01,2020-09-19,36.3817,"LEMON COVE, CA US",1,GHCND:USC00044890,METERS,-119.0264,,
58,132.6,1913-01-01,2020-09-18,36.2032,"LINDSAY, CA US",1,GHCND:USC00044957,METERS,-119.0545,,
59,119.8,1903-01-01,2020-05-31,37.6927,"LIVERMORE, CA US",1,GHCND:USC00044997,METERS,-121.8144,,
60,2052.8,1968-01-01,2020-09-19,36.6044,"LODGEPOLE, CA US",1,GHCND:USC00045026,METERS,-118.7325,,
61,12.2,1893-01-01,2015-01-30,38.1061,"LODI, CA US",1,GHCND:USC00045032,METERS,-121.2877,,
62,22.9,1917-03-01,2020-07-31,34.6538,"LOMPOC, CA US",1,GHCND:USC00045064,METERS,-120.4513,,
63,172.2,1894-04-01,2010-12-31,34.7455,"LOS ALAMOS, CA US",1,GHCND:USC00045107,METERS,-120.28,,
64,36.6,1906-03-01,2020-09-18,37.0563,"LOS BANOS, CA US",1,GHCND:USC00045118,METERS,-120.8666,,
65,256.9,1932-01-01,2020-07-31,36.8749,"LOS BANOS ARBURUA RANCH, CA US",1,GHCND:USC00045119,METERS,-120.9386,,
66,124.1,1968-07-01,2010-12-31,36.98972,"LOS BANOS DET RESV, CA US",1,GHCND:USC00045120,METERS,-120.92972,,
67,111.3,1893-01-01,2019-01-28,37.2319,"LOS GATOS, CA US",1,GHCND:USC00045123,METERS,-121.9592,,
68,832.1,1921-01-01,2015-10-01,34.23833,"LYTLE CREEK RANGER STATION, CA US",1,GHCND:USC00045218,METERS,-117.47083,,
69,82.3,1928-01-01,2020-07-31,36.9539,"MADERA, CA US",1,GHCND:USC00045233,METERS,-120.0378,,
70,2378.7,1993-12-01,2020-05-21,37.6478,"MAMMOTH LAKES RANGER STATION, CA US",1,GHCND:USC00045280,METERS,-118.9617,,
71,1752.6,1949-01-01,2020-09-18,40.5411,"MANZANITA LAKE, CA US",1,GHCND:USC00045311,METERS,-121.5766,,
72,146.3,1970-03-01,2020-09-19,38.4916,"MARKLEY COVE, CA US",1,GHCND:USC00045360,METERS,-122.1241,,
73,12.2,1970-02-01,2019-08-31,38.0131,"MARTINEZ WATER PLANT, CA US",1,GHCND:USC00045378,METERS,-122.1142,,
74,1374.6,1947-10-01,2011-03-31,37.885,"MATHER, CA US",1,GHCND:USC00045400,METERS,-119.8561,,
75,985.4,1909-10-01,2020-09-18,41.2516,"MCCLOUD, CA US",1,GHCND:USC00045449,METERS,-122.13824,,
76,-55.8,1905-09-01,2020-09-01,33.5697,"MECCA FIRE STATION, CA US",1,GHCND:USC00045502,METERS,-116.073,,
77,46.9,1899-01-01,2020-09-17,37.2888,"MERCED, CA US",1,GHCND:USC00045532,METERS,-120.5158,,
78,341.7,1893-01-01,2020-09-17,38.74774,"MIDDLETOWN, CA US",1,GHCND:USC00045598,METERS,-122.62583,,
79,1485.9,1909-01-01,2020-09-18,40.3458,"MINERAL, CA US",1,GHCND:USC00045679,METERS,-121.6091,,
80,1325.9,1958-01-01,2011-04-30,34.9436,"MITCHELL CAVERNS, CA US",1,GHCND:USC00045721,METERS,-115.5469,,
81,833.6,1904-01-01,2020-08-07,35.0492,"MOJAVE, CA US",1,GHCND:USC00045756,METERS,-118.1619,,
82,79.2,1906-01-01,2019-08-31,36.59031,"MONTEREY, CA US",1,GHCND:USC00045795,METERS,-121.9055,,
83,37.2,1995-01-01,2019-03-31,36.5927,"MONTEREY WEATHER FORECAST OFFICE, CA US",1,GHCND:USC00045802,METERS,-121.8555,,
84,170,1902-08-01,2020-09-18,53.2167,"KUSTANAI, KZ",0.9659,GHCND:KZ000028952,METERS,63.6167,,
85,263.3,1962-03-01,2020-09-15,35.5982,"PIKEVILLE, TN US",1,GHCND:USC00407184,METERS,-85.1939,,
86,246.9,1948-01-01,2020-09-18,35.6697,"PASO ROBLES MUNICIPAL AIRPORT, CA US",1,GHCND:USW00093209,METERS,-120.6283,,
87,1278.6,1894-03-01,2020-09-15,41.1936,"ADIN RANGER STATION, CA US",1,GHCND:USC00040029,METERS,-120.9447,,
88,516.6,1952-10-01,2020-08-16,32.8358,"ALPINE, CA US",1,GHCND:USC00040136,METERS,-116.7774,,
89,1334.4,1905-04-01,2018-03-31,41.4901,"ALTURAS, CA US",1,GHCND:USC00040161,METERS,-120.5437,,
90,522.7,1940-01-01,2020-08-31,38.573,"ANGWIN PACIFIC UNION COLLEGE, CA US",1,GHCND:USC00040212,METERS,-122.4405,,
91,18.3,1955-03-01,2020-07-31,37.9833,"ANTIOCH PUMPING PLANT NUMBER 3, CA US",1,GHCND:USC00040232,METERS,-121.7525,,
92,1193.3,1943-09-01,2010-12-31,33.5558,"ANZA, CA US",1,GHCND:USC00040235,METERS,-116.6738,,
93,520.6,1927-01-01,2020-02-29,36.4914,"ASH MOUNTAIN, CA US",1,GHCND:USC00040343,METERS,-118.8253,,
94,637,1915-01-01,2019-08-31,37.0919,"AUBERRY 2 NW, CA US",1,GHCND:USC00040379,METERS,-119.5128,,
95,393.8,1905-01-01,2020-09-17,38.9072,"AUBURN, CA US",1,GHCND:USC00040383,METERS,-121.0838,,
96,7.6,1909-01-01,1988-12-31,33.35,"AVALON PLEASURE PIER, CA US",0.9379,GHCND:USC00040395,METERS,-118.31667,,
97,293.2,1971-12-01,2013-08-31,35.27611,"BAKER, CA US",1,GHCND:USC00040436,METERS,-116.06278,,
98,528.8,1950-02-01,2020-09-18,36.9092,"BALCH POWER HOUSE, CA US",1,GHCND:USC00040449,METERS,-119.0883,,
99,676.7,1980-05-01,2020-09-18,34.8927,"BARSTOW, CA US",1,GHCND:USC00040521,METERS,-117.0219,,
100,128,1972-12-01,2020-07-31,37.0855,"BEN LOMOND NUMBER 4, CA US",1,GHCND:USC00040673,METERS,-122.0797,,
101,1664.2,1964-10-01,2010-12-31,37.84278,"BENTON INSPECTION STATION, CA US",1,GHCND:USC00040684,METERS,-118.47833,,
102,94.5,1893-01-01,2020-07-31,37.8744,"BERKELEY, CA US",1,GHCND:USC00040693,METERS,-122.2605,,
103,381.9,1943-10-01,2017-12-28,40.7405,"BIG BAR 4 E, CA US",1,GHCND:USC00040738,METERS,-123.2077,,
104,2058.3,1960-01-01,2020-09-18,34.243,"BIG BEAR LAKE, CA US",1,GHCND:USC00040741,METERS,-116.917,,
105,646.2,1954-01-01,2010-12-31,37.31667,"BLACK MOUNTAIN 2 WSW, CA US",1,GHCND:USC00040850,METERS,-122.16667,,
106,246.9,1942-07-01,2020-09-18,33.2559,"BORREGO DESERT PARK, CA US",1,GHCND:USC00040983,METERS,-116.4036,,
107,1097.3,1969-10-01,2010-12-31,32.66667,"BOULEVARD 2, CA US",1,GHCND:USC00041010,METERS,-116.3,,
108,1641.3,1896-06-01,2020-07-31,39.4539,"BOWMAN DAM, CA US",1,GHCND:USC00041018,METERS,-120.6556,,
109,-30.5,1910-05-01,2010-12-31,32.9544,"BRAWLEY, CA US",1,GHCND:USC00041048,METERS,-115.5581,,
110,1158.2,1948-07-01,2020-07-31,40.8669,"BUCKHORN, CA US",1,GHCND:USC00041149,METERS,-121.8463,,
111,576.4,1959-07-01,2020-07-31,39.9372,"BUCKS CREEK, CA US",1,GHCND:USC00041159,METERS,-121.3147,,
112,199.6,1939-12-01,2020-09-18,34.1866,"BURBANK VALLEY PUMP PLANT, CA US",0.988,GHCND:USC00041194,METERS,-118.348,,
113,974.8,1948-01-01,2015-09-17,40.8802,"BURNEY, CA US",1,GHCND:USC00041214,METERS,-121.6547,,
114,68.6,1940-01-01,2020-09-19,35.4028,"BUTTONWILLOW, CA US",1,GHCND:USC00041244,METERS,-119.47,,
115,240.5,1952-01-01,2020-09-19,34.58223,"CACHUMA LAKE, CA US",1,GHCND:USC00041253,METERS,-119.98159,,
116,1431,1929-10-01,2020-07-31,38.2769,"CALAVERAS BIG TREES, CA US",1,GHCND:USC00041277,METERS,-120.3113,,
117,3.7,1904-01-01,2010-12-31,32.6881,"CALEXICO, CA US",1,GHCND:USC00041288,METERS,-115.4644,,
118,121.9,1906-01-01,2020-07-31,38.5961,"CALISTOGA, CA US",1,GHCND:USC00041312,METERS,-122.6013,,
119,940.3,1943-01-01,2018-11-30,41.3378,"CALLAHAN, CA US",1,GHCND:USC00041316,METERS,-122.82484,,
120,801.6,1948-07-01,2020-09-18,32.6263,"CAMPO, CA US",0.9766,GHCND:USC00041424,METERS,-116.4699,,
121,200.6,1926-07-01,2020-07-31,38.2486,"CAMP PARDEE, CA US",1,GHCND:USC00041428,METERS,-120.8433,,
122,1313.7,1943-09-01,2012-04-01,41.4219,"CANBY, CA US",1,GHCND:USC00041476,METERS,-120.9016,,
123,1389.9,1914-01-01,2020-07-31,40.1705,"CANYON DAM, CA US",1,GHCND:USC00041497,METERS,-121.0886,,
124,704.1,1954-01-01,2010-12-31,41.14167,"CECILVILLE, CA US",1,GHCND:USC00041606,METERS,-123.13917,,
125,1428.9,1894-01-01,2020-09-15,41.5301,"CEDARVILLE, CA US",1,GHCND:USC00041614,METERS,-120.1791,,
126,1452.4,1955-01-01,2020-07-31,37.9747,"CHERRY VALLEY DAM, CA US",1,GHCND:USC00041697,METERS,-119.9161,,
127,1380.7,1909-10-01,2020-09-19,40.3033,"CHESTER, CA US",1,GHCND:USC00041700,METERS,-121.2422,,
128,56.4,1906-01-01,2020-09-15,39.6911,"CHICO UNIVERSITY FARM, CA US",1,GHCND:USC00041715,METERS,-121.8211,,
129,17.1,1918-09-01,2020-09-07,32.64,"CHULA VISTA, CA US",1,GHCND:USC00041758,METERS,-117.0858,,
130,411.2,1954-01-01,2020-09-11,38.9238,"CLEARLAKE 4 SE, CA US",1,GHCND:USC00041806,METERS,-122.5672,,
131,121.9,1950-07-01,2020-09-18,38.79296,"CLOVERDALE, CA US",1,GHCND:USC00041838,METERS,-123.0263,,
132,204.2,1942-01-01,2020-09-18,36.1356,"COALINGA, CA US",1,GHCND:USC00041864,METERS,-120.3606,,
133,679.7,1977-08-01,2010-12-31,37.25028,"COARSEGOLD 1 SW, CA US",1,GHCND:USC00041878,METERS,-119.70528,,
134,128,1943-01-01,2020-09-17,40.4,"COLEMAN FISHERIES STATION, CA US",1,GHCND:USC00041907,METERS,-122.1433,,
135,725.4,1905-01-01,2020-07-31,39.0911,"COLFAX, CA US",1,GHCND:USC00041912,METERS,-120.948,,
136,181.4,1906-11-01,2020-07-31,39.3308,"COLGATE POWERHOUSE, CA US",1,GHCND:USC00041916,METERS,-121.1922,,
137,423.7,1948-01-01,2011-01-15,45.149,"GOODRICH 1 E, WI US",1,GHCND:USC00473182,METERS,-90.0668,,
138,448.1,1889-06-01,2020-09-19,45.1307,"MEDFORD, WI US",1,GHCND:USC00475255,METERS,-90.3438,,
139,201.2,1993-01-01,2006-06-30,43.5,"NEW DURHAM 4 N, NH US",0.9993,GHCND:USC00275783,METERS,-71.15,,
140,1713,1895-04-01,2012-10-07,35.9988,"ESPANOLA, NM US",1,GHCND:USC00293031,METERS,-106.0588,,
141,2292.1,1915-03-01,2010-12-31,35.5816,"GLORIETA, NM US",1,GHCND:USC00293586,METERS,-105.7727,,
142,2042.2,1903-03-01,2020-07-31,35.2655,"GOLDEN, NM US",1,GHCND:USC00293592,METERS,-106.2144,,
143,2059.2,1972-04-01,2020-07-31,35.6194,"SANTA FE 2, NM US",1,GHCND:USC00298085,METERS,-105.9753,,
144,1943.1,1954-11-01,2020-07-31,35.1766,"STANLEY 2 NNE, NM US",1,GHCND:USC00298518,METERS,-105.9438,,
145,1866.6,1954-01-01,2010-12-31,35.55,"TURQUOISE BONANZA CR, NM US",1,GHCND:USC00299193,METERS,-106.1,,
146,340.8,1916-07-01,2020-09-19,37.0631,"ARKANSAS CITY, KS US",1,GHCND:USC00140313,METERS,-97.0399,,
147,418.8,1944-12-01,2020-09-10,37.35691,"CONWAY SPRINGS 4 SW, KS US",1,GHCND:USC00141795,METERS,-97.69451,,
148,359.7,1943-02-01,2020-07-31,37.2736,"OXFORD, KS US",1,GHCND:USC00146169,METERS,-97.1694,,
149,373.1,1894-04-01,2020-09-11,37.26765,"WELLINGTON, KS US",1,GHCND:USC00148670,METERS,-97.41943,,
150,402.6,1953-01-01,2020-09-19,37.6475,"WICHITA DWIGHT D. EISENHOWER NATIONAL AIRPORT, KS US",1,GHCND:USW00003928,METERS,-97.43,,
151,41.1,1885-08-01,2020-06-30,42.7913,"NASHUA 2 NNW, NH US",1,GHCND:USC00275712,METERS,-71.4735,,
152,195.1,1969-01-01,2010-12-31,18.37944,"MONTE BELLO MANATI, US",1,GHCND:RQC00666270,METERS,-66.51528,,
153,73.2,1990-09-01,2010-12-31,18.42861,"BARCELONETA 3 SW, US",1,GHCND:RQC00660668,METERS,-66.56306,,
154,49,1973-01-01,2020-09-18,32.683,FUNCHAL S.CATARINA,0.9962,GHCND:POM00008521,METERS,-16.767,,
155,25,1996-12-31,2020-09-18,32.63,FUNCHAL,0.9669,GHCND:PO000008522,METERS,-16.8997,,
156,213.4,1923-01-01,2010-12-31,42.34917,"WAUKEGAN, IL US",1,GHCND:USC00119029,METERS,-87.88278,,
157,182.9,1944-02-01,2020-09-18,42.5608,"KENOSHA, WI US",1,GHCND:USC00474174,METERS,-87.8155,,
158,181.4,1896-05-01,2020-09-19,42.7022,"RACINE, WI US",1,GHCND:USC00476922,METERS,-87.7861,,
159,222.5,1941-06-01,2020-09-19,42.6902,"UNION GROVE, WI US",1,GHCND:USC00478723,METERS,-88.0336,,
160,226.5,1997-11-01,2020-09-18,42.595,"KENOSHA REGIONAL AIRPORT, WI US",1,GHCND:USW00004845,METERS,-87.93806,,
161,221.6,1999-09-01,2020-09-18,42.41667,"CHICAGO WAUKEGAN REGIONAL AIRPORT, IL US",1,GHCND:USW00014880,METERS,-87.86667,,
162,205.4,1998-03-01,2020-09-18,42.76111,"RACINE BATTEN AIRPORT, WI US",1,GHCND:USW00094818,METERS,-87.81361,,
163,235.9,2004-01-01,2020-09-19,42.93754,"HALES CORNERS WHITNALL PARK BOERNER BOTANICAL GARDENS, WI US",1,GHCND:USC00473391,METERS,-88.02972,,
164,276.5,1956-03-01,2014-01-01,33.8263,"ATLANTA 9 NW, GA US",1,GHCND:USC00090444,METERS,-84.4961,,
165,298.7,1993-11-01,2014-03-01,33.8533,"MABLETON 1 N, GA US",1,GHCND:USC00095404,METERS,-84.5783,,
166,318.2,2008-05-01,2020-09-18,33.956597,"KENNESAW 5.6 SW, GA US",0.9998,GHCND:US1GACB0006,METERS,-84.671665,,
167,228.6,1950-01-01,2020-09-18,45.4117,"ST. CROIX FALLS, WI US",1,GHCND:USC00477464,METERS,-92.6466,,
168,256,1990-12-01,2020-09-19,45.5231,"WILD RIVER STATE PARK, MN US",1,GHCND:USC00218986,METERS,-92.7489,,
169,296.3,1892-01-01,2020-09-18,38.80088,"SPENCER, WV US",1,GHCND:USC00468384,METERS,-81.35846,,
170,929.9,1951-02-01,1988-10-31,38.68333,"SPRUCE KNOB, WV US",0.9934,GHCND:USC00468433,METERS,-79.51667,,
171,538.9,1967-02-01,2020-09-19,38.22015,"SUMMERSVILLE LAKE, WV US",1,GHCND:USC00468614,METERS,-80.89378,,
172,801.6,1948-08-01,2020-01-07,39.4467,"TERRA ALTA NUMBER 1, WV US",1,GHCND:USC00468777,METERS,-79.5469,,
173,917.4,1929-07-01,2010-12-31,39.15,"THOMAS, WV US",1,GHCND:USC00468807,METERS,-79.5,,
174,643.1,1894-02-01,2012-03-31,37.5436,"UNION 3 SSE, WV US",1,GHCND:USC00469011,METERS,-80.5336,,
175,469.4,1897-09-01,2016-03-01,38.78333,"UPPER TRACT, WV US",1,GHCND:USC00469049,METERS,-79.28333,,
176,739.1,1938-01-01,2013-04-20,38.5453,"VALLEY HEAD, WV US",1,GHCND:USC00469086,METERS,-80.0369,,
177,292.6,1917-02-01,2016-07-31,39.10592,"WARDENSVILLE R M FARM, WV US",1,GHCND:USC00469281,METERS,-78.58089,,
178,182.9,1963-10-01,2015-10-01,38.226,"WAYNE 2, WV US",0.8794,GHCND:USC00469323,METERS,-82.4431,,
179,461.5,1902-01-01,2012-01-05,38.4738,"WEBSTER SPRINGS, WV US",1,GHCND:USC00469333,METERS,-80.4086,,
180,201.2,1878-02-01,2004-04-30,40.27528,"WELLSBURG WATER TREATMENT P, WV US",0.7697,GHCND:USC00469368,METERS,-80.61194,,
181,245.7,1971-01-01,2020-09-19,39.29056,"WEST UNION 2, WV US",1,GHCND:USC00469458,METERS,-80.76871,,
182,584.9,1888-05-01,2020-09-19,37.78839,"WHITE SULPHUR SPRINGS, WV US",1,GHCND:USC00469522,METERS,-80.30835,,
183,204.2,1900-08-01,1993-07-31,37.66667,"WILLIAMSON, KY US",0.9803,GHCND:USC00469605,METERS,-82.28333,,
184,231.6,1951-09-01,2017-11-30,37.6731,"WILLIAMSON, WV US",1,GHCND:USC00469610,METERS,-82.2762,,
185,189.3,1938-01-01,2020-07-31,38.5277,"WINFIELD LOCKS, WV US",1,GHCND:USC00469683,METERS,-81.91535,,
186,253.3,1948-08-01,2020-09-18,39.3395,"PARKERSBURG AIRPORT, WV US",1,GHCND:USW00003804,METERS,-81.4438,,
187,870.5,1959-09-01,2020-09-18,37.2978,"BLUEFIELD MERCER CO AIRPORT, WV US",1,GHCND:USW00003859,METERS,-81.20366,,
188,251.2,1961-01-01,2020-09-19,38.36532,"HUNTINGTON TRI STATE AIRPORT, WV US",1,GHCND:USW00003860,METERS,-82.55485,,
189,766.3,1963-01-01,2020-09-19,37.7836,"BECKLEY RALEIGH CO AIRPORT, WV US",1,GHCND:USW00003872,METERS,-81.123,,
190,597.7,1926-01-01,2020-09-19,38.88989,"ELKINS RANDOLPH CO AIRPORT, WV US",1,GHCND:USW00013729,METERS,-79.85544,,
191,162.8,1926-01-01,2020-09-18,39.4038,"MARTINSBURG EASTERN WEST VIRGINIA REGIONAL AIRPORT, WV US",1,GHCND:USW00013734,METERS,-77.945,,
192,378,1872-05-01,2020-09-18,39.64981,"MORGANTOWN MUNICIPAL AIRPORT, WV US",1,GHCND:USW00013736,METERS,-79.9207,,
193,277.4,1947-12-01,2020-09-19,38.3794,"CHARLESTON YEAGER AIRPORT, WV US",1,GHCND:USW00013866,METERS,-81.59,,
194,180.7,1926-01-01,2020-09-19,39.28115,"PARKERSBURG, WV US",1,GHCND:USW00013867,METERS,-81.55694,,
195,223.1,1951-09-01,1989-01-31,37.55,"FREEBURN 2 SW, KY US",0.9041,GHCND:USC00153046,METERS,-82.16667,,
196,371.6,1953-05-01,2012-04-20,39.4881,"ALBRIGHT, WV US",1,GHCND:USC00460094,METERS,-79.6369,,
197,473,1944-03-01,2020-09-19,37.72716,"ALDERSON, WV US",1,GHCND:USC00460102,METERS,-80.65837,,
198,760.5,1940-03-01,2010-12-31,37.4225,"ATHENS, WV US",1,GHCND:USC00460355,METERS,-81.02556,,
199,735.2,1902-05-01,2020-09-19,39.2728,"BAYARD, WV US",1,GHCND:USC00460527,METERS,-79.3684,,
200,710.2,1893-12-01,2020-09-19,37.76475,"BECKLEY VA HOSPITAL, WV US",1,GHCND:USC00460580,METERS,-81.19405,,
201,195.1,1900-09-01,1985-09-30,39.46667,"BENS RUN 1 SSE, WV US",0.9736,GHCND:USC00460687,METERS,-81.1,,
202,423.7,1943-03-01,2020-09-19,37.64128,"BLUESTONE LAKE, WV US",1,GHCND:USC00460939,METERS,-80.88331,,
203,182.9,1940-01-01,2012-03-01,38.2348,"BRANCHLAND 1 N, WV US",1,GHCND:USC00461075,METERS,-82.2033,,
204,548,1909-05-01,1989-06-30,39.66667,"BRANDONVILLE, WV US",0.7245,GHCND:USC00461083,METERS,-79.61667,,
205,647.1,1952-12-01,2020-09-19,38.18731,"BUCKEYE, WV US",1,GHCND:USC00461215,METERS,-80.13359,,
206,443.5,1888-01-01,2020-09-19,38.9803,"BUCKHANNON, WV US",1,GHCND:USC00461220,METERS,-80.2201,,
207,249.6,1949-04-01,2020-09-19,38.84575,"BURNSVILLE LAKE, WV US",1,GHCND:USC00461282,METERS,-80.62006,,
208,292,1973-01-01,2020-09-19,39.50932,"CACAPON ST PARK NUMBER 2, WV US",1,GHCND:USC00461324,METERS,-78.29739,,
209,231.6,1981-01-01,2010-12-31,39.20472,"CAIRO, WV US",1,GHCND:USC00461330,METERS,-81.15722,,
210,676.7,1915-01-01,2012-03-01,38.3567,"CAMDEN ON GAULEY 2 SW, WV US",1,GHCND:USC00461363,METERS,-80.6294,,
211,990.3,1944-07-01,2010-12-31,39.05,"CANAAN VALLEY, WV US",1,GHCND:USC00461393,METERS,-79.41667,,
212,313.9,1951-09-01,1993-08-31,38.62306,"CENTRALIA, WV US",0.9821,GHCND:USC00461526,METERS,-80.56639,,
213,301.8,1922-11-01,2020-09-19,39.2682,"CLARKSBURG 1, WV US",1,GHCND:USC00461677,METERS,-80.3522,,
214,222.5,1897-04-01,2010-12-31,38.4598,"CLAY, WV US",1,GHCND:USC00461696,METERS,-81.0849,,
215,20,1944-01-01,2017-01-02,57.78,"SAVE, SW",1,GHCND:SW000002512,METERS,11.88,,
216,15,1945-01-01,2020-07-31,57.49,"ROSSARED, SW",0.997,GHCND:SWE00138118,METERS,12.2,,
217,45,1945-01-01,2020-07-31,57.55,"GREBBESHULT, SW",0.9985,GHCND:SWE00138134,METERS,12.46,,
218,50,1978-12-01,1983-06-30,57.56,"SANDSJOBACKA, SW",1,GHCND:SWE00138140,METERS,12.04,,
219,12,1880-01-01,2020-07-31,57.63,"VINGA, SW",0.9324,GHCND:SWE00138166,METERS,11.61,,
220,61,1945-01-01,1994-04-30,57.66,"MOLNDAL, SW",0.9917,GHCND:SWE00138178,METERS,12.04,,
221,65,1945-01-01,2020-07-31,57.66,"BOLLEBYGD, SW",1,GHCND:SWE00138180,METERS,12.55,,
222,150,1974-11-01,2020-07-31,57.67,"LANDVETTER FLYGPLATS, SW",0.6742,GHCND:SWE00138184,METERS,12.3,,
223,60,1965-03-01,1987-12-31,57.69,"LANDVETTER, SW",1,GHCND:SWE00138190,METERS,12.23,,
224,75,1945-01-03,1985-05-31,57.85,"OJARED, SW",0.9899,GHCND:SWE00138260,METERS,12.38,,
225,70,1949-01-01,2020-07-31,57.89,"ALINGSAS D, SW",0.9976,GHCND:SWE00138282,METERS,12.55,,
226,5,1961-01-01,1995-03-31,58.01,"ALVHEM, SW",0.9891,GHCND:SWE00138324,METERS,12.15,,
227,10,1945-01-01,1998-08-31,58.02,"SABY, SW",0.9938,GHCND:SWE00138332,METERS,11.6,,
228,14,1883-09-01,1995-10-31,58.1,MASESKAR,1,GHCND:SWE00138364,METERS,11.35,,
229,5,1945-01-01,1995-06-30,57.3,NIDINGEN,0.9407,GHCND:SWE00138044,METERS,11.9,,
230,2,1881-11-01,2007-03-31,57.3039,"NIDINGEN A, SW",0.971,GHCND:SWE00138046,METERS,11.9064,,
231,146.3,1959-01-01,2020-08-31,36.4805,"CARMEL VALLEY, CA US",1,GHCND:USC00041534,METERS,-121.7244,,
232,432.8,1971-01-01,2008-08-31,38.5641,"CAZADERO 5 NW, CA US",0.4797,GHCND:USC00041603,METERS,-123.1616,,
233,15.2,1948-10-01,2020-07-31,39.1875,"COLUSA 2 SSW, CA US",1,GHCND:USC00041948,METERS,-122.0269,,
234,12.2,1991-09-01,2019-03-31,37.9833,"CONCORD WASTEWATER PLANT, CA US",1,GHCND:USC00041967,METERS,-122.0692,,
235,823.9,1959-01-01,2020-09-18,41.9797,"COPCO NUMBER 1 DAM, CA US",1,GHCND:USC00041990,METERS,-122.3378,,
236,61,1948-01-01,2020-09-17,36.0975,"CORCORAN IRRIGATION DIST., CA US",1,GHCND:USC00042012,METERS,-119.5817,,
237,185,1929-10-01,2020-07-31,34.0918,"COVINA CITY YARD FC387B, CA US",1,GHCND:USC00042090,METERS,-117.88012,,
238,13.1,1893-01-01,2013-07-22,41.7958,"CRESCENT CITY, CA US",1,GHCND:USC00042147,METERS,-124.2147,,
239,28,1935-01-01,2020-09-18,34.005,"CULVER CITY, CA US",1,GHCND:USC00042214,METERS,-118.4139,,
240,1414.3,1899-01-01,2020-08-12,32.9897,"CUYAMACA, CA US",1,GHCND:USC00042239,METERS,-116.5872,,
241,18.3,1893-01-01,2020-09-19,38.5349,"DAVIS 2 WSW EXPERIMENTAL FARM, CA US",1,GHCND:USC00042294,METERS,-121.7761,,
242,-59.1,1961-04-01,2020-09-18,36.4622,"DEATH VALLEY NATIONAL PARK, CA US",1,GHCND:USC00042319,METERS,-116.8669,,
243,1592.6,1948-01-01,2010-12-31,37.3738,"DEEP SPRINGS COLLEGE, CA US",1,GHCND:USC00042331,METERS,-117.9802,,
244,92,1906-01-01,2020-09-19,35.7683,"DELANO, CA US",1,GHCND:USC00042346,METERS,-119.26,,
245,826,1906-01-01,2020-07-31,39.8716,"DE SABLA, CA US",1,GHCND:USC00042402,METERS,-121.6108,,
246,227.7,2004-02-01,2019-05-31,33.7377,"DESERT CENTER 2 NNE, CA US",1,GHCND:USC00042410,METERS,-115.3925,,
247,888.5,1908-09-01,2020-07-31,39.5633,"DOWNIEVILLE, CA US",1,GHCND:USC00042500,METERS,-120.8238,,
248,1308.5,1923-01-01,2017-12-31,40.0267,"DOYLE, CA US",1,GHCND:USC00042504,METERS,-120.1055,,
249,1338.1,1956-01-01,2017-02-28,39.9717,"DOYLE 4 SSE, CA US",1,GHCND:USC00042506,METERS,-120.0828,,
250,661.1,1978-01-01,2020-07-31,41.1831,"DUNSMUIR TREATMENT PLANT, CA US",1,GHCND:USC00042574,METERS,-122.28167,,
251,-9.1,1932-03-01,2020-09-19,32.7669,"EL CENTRO 2 SSW, CA US",1,GHCND:USC00042713,METERS,-115.5617,,
252,386.5,1897-03-01,2020-07-31,33.686,"ELSINORE, CA US",1,GHCND:USC00042805,METERS,-117.3458,,
253,12.2,1950-01-01,2020-07-31,38.2736,"FAIRFIELD, CA US",1,GHCND:USC00042934,METERS,-122.0677,,
254,932.7,1909-01-01,2020-07-31,34.705,"FAIRMONT, CA US",1,GHCND:USC00042941,METERS,-118.4297,,
255,1005.8,1923-05-01,2020-07-31,41.008,"FALL RIVER MILLS, CA US",1,GHCND:USC00042964,METERS,-121.435,,
256,121.9,2000-01-01,2008-08-31,37.05056,"FELTON, CA US",0.9583,GHCND:USC00043004,METERS,-122.075,,
257,658.4,1938-01-01,2020-07-31,38.5236,"FIDDLETOWN DEXTER RANCH, CA US",1,GHCND:USC00043038,METERS,-120.7061,,
258,919,1937-12-01,2020-07-31,39.01,"FORESTHILL RANGER STATION, CA US",1,GHCND:USC00043134,METERS,-120.8455,,
259,1444.4,1867-06-01,2020-07-31,41.8715,"FORT BIDWELL, CA US",1,GHCND:USC00043157,METERS,-120.1574,,
260,37.5,1895-01-01,2020-09-18,39.5091,"FORT BRAGG 5 N, CA US",1,GHCND:USC00043161,METERS,-123.7566,,
261,831.8,1936-01-01,2020-09-18,41.60104,"FORT JONES RANGER STATION, CA US",0.999,GHCND:USC00043182,METERS,-122.84775,,
262,34.1,1895-10-01,2020-06-30,38.515,"FORT ROSS, CA US",1,GHCND:USC00043191,METERS,-123.2447,,
263,11.6,1996-06-01,2020-09-18,37.5422,"FREMONT, CA US",1,GHCND:USC00043244,METERS,-122.0158,,
264,103,1999-01-01,2020-09-17,36.7672,"FRESNO 5 NE, CA US",1,GHCND:USC00043256,METERS,-119.7092,,
265,125,1912-01-01,2020-09-19,36.9969,"FRIANT GOVERNMENT CAMP, CA US",1,GHCND:USC00043261,METERS,-119.7072,,
266,118,1948-01-01,2020-07-31,41.8452,"GASQUET RANGER STATION, CA US",1,GHCND:USC00043357,METERS,-123.9647,,
267,914.7,1946-11-01,2020-09-18,38.933,"GEORGETOWN RANGER STATION, CA US",1,GHCND:USC00043384,METERS,-120.8008,,
268,340.5,2000-01-01,2016-06-30,34.0869,"GETTY CENTER, CA US",1,GHCND:USC00043392,METERS,-118.4794,,
269,474.9,1958-01-01,2020-07-31,34.5225,"GIBRALTAR DAM NUMBER 2, CA US",1,GHCND:USC00043402,METERS,-119.6822,,
270,59.1,1906-01-01,2020-09-18,37.003,"GILROY, CA US",1,GHCND:USC00043417,METERS,-121.5608,,
271,284.4,1895-01-01,2011-02-28,34.1472,"GLENDORA FC 287B, CA US",1,GHCND:USC00043452,METERS,-117.8472,,
272,957.1,1951-01-01,2020-07-28,35.7269,"GLENNVILLE, CA US",1,GHCND:USC00043463,METERS,-118.7006,,
273,1011.9,1905-01-01,2020-09-16,39.165,"GOLD RUN 2 SW, CA US",1,GHCND:USC00043491,METERS,-120.8566,,
274,2005.6,1940-07-01,2020-01-18,36.73751,"GRANT GROVE, CA US",1,GHCND:USC00043551,METERS,-118.96197,,
275,294.4,1946-09-01,2020-09-19,40.1825,"MUNCIE, IN US",1,GHCND:USC00126023,METERS,-85.3497,,
276,45.7,1940-02-01,2018-12-28,31.5475,"BUCKATUNNA 1 NE, MS US",1,GHCND:USC00221174,METERS,-88.51722,,
277,125.9,1940-05-01,2020-08-29,32.0853,"CRANDALL 8 N, MS US",1,GHCND:USC00222034,METERS,-88.5296,,
278,64.9,1954-01-01,2012-10-31,32.0706,"QUITMAN 2 NNE, MS US",1,GHCND:USC00227252,METERS,-88.7189,,
279,59.4,1904-12-01,2019-05-14,31.85971,"SHUBUTA, MS US",1,GHCND:USC00228053,METERS,-88.69532,,
280,61,1892-07-01,2020-09-18,31.6773,"WAYNESBORO 2 W, MS US",1,GHCND:USC00229439,METERS,-88.6709,,
281,1066.8,1990-10-01,2020-09-18,40.295,"PATTY MOCUS CALIFORNIA, CA US",0.866,GHCND:USR0000CPAT,METERS,-122.8667,,
282,0,2001-05-01,2020-09-18,33.0164,"PINE HILLS CALIFORNIA, CA US",0.9943,GHCND:USR0000CPHI,METERS,-116.6339,,
283,1737.4,1986-07-01,2020-09-18,40.2461,"PIERCE CALIFORNIA, CA US",0.8627,GHCND:USR0000CPIE,METERS,-120.6422,,
284,1237.5,2001-04-01,2020-09-18,36.6853,"PINEHURST CALIFORNIA, CA US",1,GHCND:USR0000CPIH,METERS,-119,,
285,1132,1985-05-01,2020-09-18,39.475,"PIKE CO LOOKOUT CALIFORNIA, CA US",0.9137,GHCND:USR0000CPIK,METERS,-121.2025,,
286,365.8,1993-04-01,2020-09-18,38.8325,"PILOT HILL CALIFORNIA, CA US",1,GHCND:USR0000CPIL,METERS,-121.0086,,
287,187.1,2001-08-01,2012-11-29,34.4044,"PIRU CALIFORNIA, CA US",0.9999,GHCND:USR0000CPIR,METERS,-118.81,,
288,2298.2,1997-07-01,2020-09-18,36.7242,"PARK RIDGE CALIFORNIA, CA US",0.8977,GHCND:USR0000CPKR,METERS,-118.9425,,
289,402.9,2001-03-01,2020-09-18,36.4708,"PINNACLES CALIFORNIA, CA US",0.9999,GHCND:USR0000CPNN,METERS,-121.1472,,
290,841.2,1995-09-01,2020-09-18,34.7325,"POPPY PARK CALIFORNIA, CA US",0.9352,GHCND:USR0000CPOP,METERS,-118.3833,,
291,714.8,1990-05-01,2020-09-18,32.6058,"POTRERO CALIFORNIA, CA US",0.8783,GHCND:USR0000CPOT,METERS,-116.6089,,
292,629.7,1998-10-01,2020-09-18,37.4431,"POVERTY CALIFORNIA, CA US",0.7641,GHCND:USR0000CPOV,METERS,-121.7706,,
293,619.4,1990-05-01,2020-09-18,36.7269,"PANOCHE ROAD CALIFORNIA, CA US",0.8728,GHCND:USR0000CPRD,METERS,-120.7658,,
294,196.3,1997-05-01,2020-09-18,37.475,"PULGAS CALIFORNIA, CA US",0.9559,GHCND:USR0000CPUL,METERS,-122.2981,,
295,1287.8,1990-05-01,2020-09-18,41.5992,"QUARTZ HILL CALIFORNIA, CA US",0.9806,GHCND:USR0000CQUA,METERS,-122.9336,,
296,1066.8,1988-10-01,2020-09-18,39.9733,"QUINCY RD CALIFORNIA, CA US",0.9637,GHCND:USR0000CQUI,METERS,-120.9419,,
297,1614.8,1999-06-01,2020-09-18,40.7308,"RAVENDALE CALIFORNIA, CA US",0.9999,GHCND:USR0000CRAV,METERS,-120.3164,,
298,1345.7,1995-01-01,2020-09-18,33.2222,"RANCHITA CALIFORNIA, CA US",0.9962,GHCND:USR0000CRCH,METERS,-116.4975,,
299,599.8,2002-09-01,2020-09-18,39.3036,"READER RANCH CALIFORNIA, CA US",1,GHCND:USR0000CRDR,METERS,-121.1172,,
300,152.4,2001-06-01,2020-09-18,40.5158,"REDDING AIRPORT CALIFORNIA, CA US",0.9944,GHCND:USR0000CREA,METERS,-122.2906,,
301,249.9,1988-03-01,2020-09-18,34.0608,"RICE VALLEY CALIFORNIA, CA US",0.9999,GHCND:USR0000CRIC,METERS,-114.7322,,
302,2145.8,1999-06-01,2020-09-18,37.5514,"ROCK CREEK, CA US",0.9999,GHCND:USR0000CROC,METERS,-118.6672,,
303,1015.3,1993-11-01,2020-09-18,34.5431,"ROSE VALLEY CALIFORNIA, CA US",1,GHCND:USR0000CROS,METERS,-119.1842,,
304,1602.6,1991-03-01,2020-09-18,41.4272,"ROUND MOUNTAIN, CA US",0.9932,GHCND:USR0000CROU,METERS,-121.4639,,
305,932.7,1995-01-01,2020-09-18,37.5019,"ROSE PEAK CALIFORNIA, CA US",1,GHCND:USR0000CRSP,METERS,-121.7355,,
306,1463,1997-09-01,2020-09-18,41.2944,"RUSH CREEK CALIFORNIA, CA US",0.907,GHCND:USR0000CRUS,METERS,-120.8639,,
307,832.7,2003-06-01,2020-09-18,40.2506,"RUTH CALIFORNIA, CA US",0.9999,GHCND:USR0000CRUT,METERS,-123.3158,,
308,36.6,2001-07-01,2020-09-18,39.4172,"SACRAMENTO NWR CALIFORNIA, CA US",0.9999,GHCND:USR0000CSAC,METERS,-122.1825,,
309,789.4,1998-07-01,2020-09-18,34.6847,"SADDLEBACK BUTTE CALIFORNIA, CA US",0.9905,GHCND:USR0000CSAD,METERS,-117.8208,,
310,442,1994-09-01,2020-09-18,34.425,"SAUGUS CALIFORNIA, CA US",0.9962,GHCND:USR0000CSAU,METERS,-118.525,,
311,668.1,1988-12-01,2020-09-18,41.3003,"SAWYERS BAR CALIFORNIA, CA US",0.9818,GHCND:USR0000CSAW,METERS,-123.1322,,
312,76.2,1990-04-01,2020-09-18,33.9958,"SANTA CRUZ ISLAND CALIFORNIA, CA US",0.9391,GHCND:USR0000CSCI,METERS,-119.7222,,
313,1341.1,1990-10-01,2020-09-18,41.1117,"SCORPION CALIFORNIA, CA US",0.8823,GHCND:USR0000CSCN,METERS,-122.6967,,
314,540.4,1992-05-01,2020-09-18,39.425,"SODA CREEK CALIFORNIA, CA US",0.9338,GHCND:USR0000CSDC,METERS,-122.9772,,
315,861.4,1992-05-01,2020-09-18,39.1836,"SECRET TOWN CALIFORNIA, CA US",0.9999,GHCND:USR0000CSEC,METERS,-120.8847,,
316,152.4,1993-06-01,2020-09-18,34.1208,"SANTA FE DAM CALIFORNIA, CA US",0.9087,GHCND:USR0000CSFD,METERS,-117.9458,,
317,1751.4,1995-04-01,2020-09-18,37.135,"SHAVER CALIFORNIA, CA US",0.992,GHCND:USR0000CSHA,METERS,-119.2561,,
318,804.7,2001-01-01,2020-09-18,41.1383,"SCHOOL HOUSE CALIFORNIA, CA US",0.9893,GHCND:USR0000CSHH,METERS,-123.9056,,
319,1240.2,1990-05-01,2020-09-18,36.5672,"SHADEQUARTER CALIFORNIA, CA US",0.9517,GHCND:USR0000CSHQ,METERS,-118.9556,,
320,731.5,1989-11-01,2020-09-18,41.075,"SIMS CALIFORNIA, CA US",0.8045,GHCND:USR0000CSIM,METERS,-122.3733,,
321,278.6,2001-08-01,2012-12-05,34.2911,"SIMI VALLEY CALIFORNIA, CA US",0.9633,GHCND:USR0000CSIV,METERS,-118.8144,,
322,1423.4,1988-12-01,2020-09-18,41.8586,"SLATER BUTTE CALIFORNIA, CA US",0.9025,GHCND:USR0000CSLA,METERS,-123.3525,,
323,19.8,2002-03-01,2020-09-18,37.1822,"SAN LUIS NWR CALIFORNIA, CA US",0.9998,GHCND:USR0000CSNL,METERS,-120.7939,,
324,1524,1991-10-01,2020-09-18,36.3478,"SANTA RITA CALIFORNIA, CA US",0.9966,GHCND:USR0000CSNR,METERS,-120.5978,,
325,1130.8,1990-05-01,2020-09-18,40.9258,"SOLDIER MOUNTAIN CALIFORNIA, CA US",0.9903,GHCND:USR0000CSOL,METERS,-121.5856,,
326,280.4,1988-12-01,2020-09-18,41.39,"SOMES BAR CALIFORNIA, CA US",0.9391,GHCND:USR0000CSOM,METERS,-123.4958,,
327,1103.4,1991-09-01,2020-09-18,35.37,"SQUAW SPRINGS CALIFORNIA, CA US",1,GHCND:USR0000CSQS,METERS,-117.5683,,
328,175.6,1991-03-01,2020-09-18,38.4786,"SANTA ROSA CALIFORNIA, CA US",0.9999,GHCND:USR0000CSRS,METERS,-122.7119,,
329,365.8,1994-07-01,2020-09-18,39.3669,"STONYFORD CALIFORNIA, CA US",0.9999,GHCND:USR0000CSTO,METERS,-122.575,,
330,366.7,2001-05-01,2011-07-25,33.4781,"TALEGA CALIFORNIA, CA US",1,GHCND:USR0000CTAL,METERS,-117.4858,,
331,792.5,1986-02-01,2020-09-18,34.2069,"TANBARK CALIFORNIA, CA US",1,GHCND:USR0000CTAN,METERS,-117.7606,,
332,279.8,1992-10-01,2011-07-25,33.3722,"TARGET RANGE CALIFORNIA, CA US",0.9957,GHCND:USR0000CTAR,METERS,-117.3589,,
333,317,1990-05-01,2020-09-18,39.8644,"THOMES CREEK CALIFORNIA, CA US",0.9999,GHCND:USR0000CTHO,METERS,-122.6097,,
334,242.3,2002-06-01,2012-12-11,34.21,"THOUSAND OAKS CALIFORNIA, CA US",0.9996,GHCND:USR0000CTHS,METERS,-118.87,,
335,1511.8,2002-08-01,2020-09-18,41.6294,"TIMBER MOUNTAIN CALIFORNIA, CA US",0.9999,GHCND:USR0000CTIM,METERS,-121.2981,,
336,2748.7,1999-08-01,2019-11-25,37.3761,"MOUNT TOM CALIFORNIA, CA US",0.9349,GHCND:USR0000CTOM,METERS,-119.1783,,
337,411.5,1893-01-01,2020-09-17,43.43,"ROCK RAPIDS, IA US",1,GHCND:USC00137147,METERS,-96.1686,,
338,100.6,1928-01-01,2018-11-08,37.1275,"BROOKPORT DAM 52, IL US",1,GHCND:USC00110993,METERS,-88.653,,
339,160.6,1967-09-01,2020-06-30,37.4388,"DIXON SPRINGS AGRIC CNTR, IL US",1,GHCND:USC00112353,METERS,-88.6678,,
340,117.3,1923-07-01,2020-09-19,37.2036,"GRAND CHAIN DAM 53, IL US",1,GHCND:USC00113580,METERS,-89.0422,,
341,100,2004-01-01,2005-01-31,37.0897,"MOUND CITY, IL US",1,GHCND:USC00115880,METERS,-89.163,,
342,121.9,1968-01-01,2020-09-19,37.4747,"ROSICLARE 5 NW, IL US",1,GHCND:USC00117487,METERS,-88.4122,,
343,106.7,1892-01-01,2018-11-23,37.6977,"SHAWNEETOWN OLD TOWN, IL US",1,GHCND:USC00117859,METERS,-88.1336,,
344,108.8,1980-12-01,2020-09-17,37.1644,"SMITHLAND LOCK AND DAM, KY US",1,GHCND:USC00118020,METERS,-88.4311,,
345,121.9,1897-10-01,2020-09-16,38.0302,"BOONVILLE 1 S, IN US",1,GHCND:USC00120852,METERS,-87.2736,,
346,122.5,1972-07-01,2020-07-31,37.8994,"CANNELTON, IN US",1,GHCND:USC00121256,METERS,-86.7072,,
347,217.9,1949-03-01,2020-08-31,38.218,"CORYDON, IN US",1,GHCND:USC00121814,METERS,-86.1183,,
348,155.4,1969-01-01,2010-12-31,38.27889,"ENGLISH, IN US",1,GHCND:USC00122660,METERS,-86.46833,,
349,114,1949-01-01,2020-09-17,37.965,"EVANSVILLE MUSEUM, IN US",1,GHCND:USC00122731,METERS,-87.57305,,
350,124.1,2001-01-01,2009-01-31,37.9541,"GRANDVIEW, IN US",0.9996,GHCND:USC00123497,METERS,-86.9858,,
351,140.2,1892-01-01,2020-07-30,38.7369,"MADISON SEWAGE PLANT, IN US",1,GHCND:USC00125237,METERS,-85.3941,,
352,152.4,1993-01-01,2010-12-31,38.1108,"MCCUTCHANVILLE 4 N, IN US",1,GHCND:USC00125485,METERS,-87.5325,,
353,108.8,1888-01-01,2020-09-19,37.9286,"MOUNT VERNON, IN US",1,GHCND:USC00126001,METERS,-87.8955,,
354,115.8,1928-01-01,2020-06-30,37.9325,"NEWBURGH LOCK AND DAM, KY US",1,GHCND:USC00126151,METERS,-87.3744,,
355,234.7,1948-07-01,2010-12-31,38.4075,"PALMYRA, IN US",1,GHCND:USC00126697,METERS,-86.1105,,
356,155.4,1959-01-01,2011-08-31,38.1641,"SAINT MEINRAD, IN US",1,GHCND:USC00127724,METERS,-86.8094,,
357,239.3,1897-01-01,2012-01-28,38.6157,"SALEM, IN US",1,GHCND:USC00127755,METERS,-86.0855,,
358,118.9,1937-01-01,2020-09-19,37.953,"TELL CITY, IN US",1,GHCND:USC00128698,METERS,-86.7747,,
359,103.6,1992-03-01,2020-09-19,37.7952,"J.T. MYERS LOCKS AND DAM, KY US",1,GHCND:USC00128967,METERS,-87.993,,
360,237.7,1950-01-01,2020-09-18,37.8194,"BARDSTOWN 5 E, KY US",1,GHCND:USC00150397,METERS,-85.3847,,
361,167.6,1970-03-01,2020-03-16,37.9161,"BERNHEIM FOREST, KY US",1,GHCND:USC00150630,METERS,-85.6572,,
362,259.1,1978-05-01,2012-03-31,37.7436,"BOSTON 6 SW, KY US",1,GHCND:USC00150875,METERS,-85.7483,,
363,201.2,1962-01-01,2011-09-01,37.495,"BRADFORDSVILLE, KY US",1,GHCND:USC00150940,METERS,-85.1516,,
364,187.5,1999-01-01,2020-02-02,37.956,"BRANDENBURG, KY US",1,GHCND:USC00150955,METERS,-86.1162,,
365,237.7,1987-10-01,2012-04-01,38.3636,"CRESTWOOD 4 NE, KY US",1,GHCND:USC00151900,METERS,-85.4186,,
366,140.2,1940-02-01,2013-01-08,37.1594,"DAWSON SPRINGS, KY US",1,GHCND:USC00152072,METERS,-87.688,,
367,217.9,1974-01-01,2010-12-31,37.7822,"HARDINSBURG, KY US",1,GHCND:USC00153604,METERS,-86.4622,,
368,136.9,1894-01-01,2020-09-19,37.7558,"HENDERSON 8 SSW, KY US",1,GHCND:USC00153762,METERS,-87.6455,,
369,120.4,1996-01-01,2015-02-14,37.8934,"LEWISPORT 4 S, KY US",1,GHCND:USC00154732,METERS,-86.906,,
370,134.1,1948-06-01,2020-09-19,38.27778,"LOUISVILLE UPPR GAGE, KY US",1,GHCND:USC00154955,METERS,-85.79167,,
371,192.6,1997-01-01,2020-09-19,38.1151,"LOUISVILLE WEATHER FORECAST OFFICE, KY US",1,GHCND:USC00154958,METERS,-85.6445,,
372,129.5,1946-06-01,2020-09-16,37.3475,"MADISONVILLE, KY US",1,GHCND:USC00155067,METERS,-87.5238,,
373,164.6,1981-01-01,2020-09-17,37.3441,"MARION 1 NE, KY US",0.9879,GHCND:USC00155150,METERS,-88.0658,,
374,121.9,1994-08-01,2020-06-30,37.7908,"OWENSBORO 3 E, KY US",1,GHCND:USC00156094,METERS,-87.0663,,
375,125.9,2003-01-01,2009-12-01,37.0683,"PADUCAH 2 W, KY US",0.987,GHCND:USC00156130,METERS,-88.7724,,
376,151.5,1965-02-01,2020-05-31,37.1244,"PRINCETON 1 SE, KY US",1,GHCND:USC00156580,METERS,-87.8672,,
377,124.7,1979-01-01,2020-09-19,37.3997,"PROVIDENCE, KY US",1,GHCND:USC00156595,METERS,-87.7622,,
378,187.5,1948-12-01,2020-09-18,38.0544,"SHEPHERDSVILLE 5 NE, KY US",1,GHCND:USC00157334,METERS,-85.6241,,
379,225.6,1893-01-01,2016-12-31,37.7054,"SPRINGFIELD 2 W, KY US",1,GHCND:USC00157604,METERS,-85.2639,,
380,152.4,1902-04-01,2020-09-03,38.0144,"TAYLORSVILLE 2 SW, KY US",0.8808,GHCND:USC00157948,METERS,-85.3713,,
381,164.6,2002-05-01,2020-09-18,37.4361,"DIXON SPRINGS ILLINOIS, IL US",0.9998,GHCND:USR0000IDIX,METERS,-88.6672,,
382,125.9,1949-01-01,2020-09-19,37.0563,"PADUCAH BARKLEY REGIONAL AIRPORT, KY US",1,GHCND:USW00003816,METERS,-88.7744,,
383,164.6,1948-08-01,2020-09-18,38.22806,"LOUISVILLE BOWMAN FIELD, KY US",1,GHCND:USW00013810,METERS,-85.66361,,
384,95.4,1908-01-01,2020-09-19,37.0422,"CAIRO 3 N, IL US",1,GHCND:USW00093809,METERS,-89.1855,,
385,121.9,1948-01-01,2020-09-19,38.0441,"EVANSVILLE REGIONAL AIRPORT, IN US",1,GHCND:USW00093817,METERS,-87.5205,,
386,148.7,1948-01-01,2020-09-19,38.1811,"LOUISVILLE INTERNATIONAL AIRPORT, KY US",1,GHCND:USW00093821,METERS,-85.7391,,
387,195.1,1895-05-01,2013-12-01,37.4813,"ANNA 2 NNE, IL US",1,GHCND:USC00110187,METERS,-89.2344,,
388,1516.4,1962-03-01,2013-05-31,44.1241,"BILLY CREEK, WY US",1,GHCND:USC00480740,METERS,-106.7319,,
389,476.4,1948-01-01,2019-09-30,48.33,"ADAMS 7 SSW, ND US",1,GHCND:USC00320022,METERS,-98.1184,,
390,158.5,1896-09-01,2018-05-31,34.26861,"AMITY, AR US",1,GHCND:USC00030150,METERS,-93.46972,,
391,59.7,1891-03-01,2020-09-18,34.1433,"ARKADELPHIA, AR US",1,GHCND:USC00030220,METERS,-93.0589,,
392,75.9,1935-11-01,1982-10-31,33.86667,"BOUGHTON, AR US",0.9964,GHCND:USC00030848,METERS,-93.33333,,
393,67.1,1948-01-01,1986-07-31,33.91667,"GURDON, AR US",0.9738,GHCND:USC00033074,METERS,-93.13333,,
394,115.8,1966-02-01,2002-12-31,34.17278,"PINEY GROVE, AR US",0.9865,GHCND:USC00035770,METERS,-93.205,,
395,163.4,1948-01-01,2020-09-18,40.1019,"DANVILLE SEWAGE PLANT, IL US",1,GHCND:USC00112145,METERS,-87.5961,,
396,,,,,,,,,,429,This token has reached its temporary request limit of 5 per second.
397,152.4,1893-01-01,2010-12-31,38.7103,"FLORA 5 NW, IL US",1,GHCND:USC00113109,METERS,-88.5758,,
398,166.1,1942-06-01,2010-12-31,39.2283,"GREENUP 3 SE, IL US",1,GHCND:USC00113683,METERS,-88.1261,,
399,216.4,1902-01-01,2020-09-14,40.4664,"HOOPESTON, IL US",1,GHCND:USC00114198,METERS,-87.6851,,
400,133.2,1946-05-01,2017-04-30,39.11374,"HUTSONVILLE, IL US",1,GHCND:USC00114317,METERS,-87.6563,,
401,179.8,1997-01-01,2020-09-19,38.49321,"IUKA 12 SW, IL US",1,GHCND:USC00114400,METERS,-88.97073,,
402,137.5,1962-10-01,2020-09-18,38.7239,"LAWRENCEVILLE 2 WSW, IL US",1,GHCND:USC00114957,METERS,-87.7196,,
403,146.3,1992-01-01,2013-11-30,38.7725,"LOUISVILLE, IL US",1,GHCND:USC00115209,METERS,-88.5011,,
404,213.7,1893-01-01,2020-09-18,39.4726,"MATTOON, IL US",1,GHCND:USC00115430,METERS,-88.3545,,
405,131.1,1891-07-01,2012-12-01,38.4105,"MOUNT CARMEL, IL US",1,GHCND:USC00115888,METERS,-87.7577,,
406,196.6,1990-10-01,2011-08-18,39.7915,"NEWMAN 3 W, IL US",1,GHCND:USC00116134,METERS,-88.0364,,
407,161.8,1995-01-01,2020-09-18,38.9916,"NEWTON, IL US",1,GHCND:USC00116157,METERS,-88.1828,,
408,155.4,1911-12-01,2010-12-31,38.91361,"NEWTON 6 SSE, IL US",1,GHCND:USC00116159,METERS,-88.11833,,
409,139.9,1893-01-01,2020-09-19,38.7003,"OLNEY 2 S, IL US",1,GHCND:USC00116446,METERS,-88.0816,,
410,137.2,1893-01-01,2020-04-11,39.00634,"PALESTINE, IL US",1,GHCND:USC00116558,METERS,-87.62359,,
411,197.8,1893-04-01,2020-09-19,39.6185,"PARIS STP, IL US",1,GHCND:USC00116610,METERS,-87.6672,,
412,,,,,,,,,,429,This token has reached its temporary request limit of 5 per second.
413,152.4,1947-01-01,2010-12-31,38.9364,"STE MARIE RIVER, IL US",1,GHCND:USC00117603,METERS,-88.0228,,
414,204.8,1913-09-01,2020-09-19,39.9677,"SIDELL 4 N, IL US",1,GHCND:USC00117952,METERS,-87.8228,,
415,198.4,1893-03-01,2020-09-19,39.79465,"TUSCOLA, IL US",1,GHCND:USC00118684,METERS,-88.29106,,
416,201.2,1969-01-01,2000-01-31,39.8,"TUSCOLA NUMBER 2, IL US",0.9518,GHCND:USC00118690,METERS,-88.27944,,
417,219.8,1902-08-01,2020-09-18,40.084,"CHAMPAIGN 3 S, IL US",1,GHCND:USC00118740,METERS,-88.2404,,
418,221.6,1991-01-01,2013-07-01,40.2838,"ATTICA 2 E, IN US",1,GHCND:USC00120331,METERS,-87.1963,,
419,262.4,1971-01-01,2020-06-30,40.8143,"BLUFFTON 6 N, IN US",1,GHCND:USC00120830,METERS,-85.1546,,
420,235.3,1989-01-01,2010-12-31,40.535,"BOSWELL 4 WNW, IN US",1,GHCND:USC00120858,METERS,-87.4531,,
421,219.5,1991-01-01,2020-09-19,40.6653,"CHALMERS 5 W, IN US",1,GHCND:USC00121417,METERS,-86.955,,
422,184.4,1994-04-01,2011-10-20,39.6593,"CLINTON 2 W, IN US",1,GHCND:USC00121628,METERS,-87.4393,,
423,254.2,1948-07-01,2020-09-18,41.1452,"COLUMBIA CITY, IN US",1,GHCND:USC00121739,METERS,-85.4898,,
424,254.8,1982-01-01,2020-09-19,40.0028,"CRAWFORDSVILLE 6 SE, IN US",1,GHCND:USC00121873,METERS,-86.8011,,
425,169.5,1893-01-01,2011-06-30,40.615,"DELPHI, IN US",1,GHCND:USC00122149,METERS,-86.666,,
426,167,1992-01-01,2020-09-18,39.2425,"FARMERSBURG TV 2, IN US",1,GHCND:USC00122814,METERS,-87.3905,,
427,294.1,1893-01-01,2020-09-18,40.2538,"FARMLAND 5 NNW, IN US",1,GHCND:USC00122825,METERS,-85.1484,,
428,208.8,1997-01-01,2020-09-19,40.5537,"FLORA, IN US",1,GHCND:USC00122931,METERS,-86.522,,
429,207.3,1990-08-01,2020-09-19,40.9843,"FRANCESVILLE, IN US",1,GHCND:USC00123078,METERS,-86.8871,,
430,,,,,,,,,,429,This token has reached its temporary request limit of 5 per second.
431,167.6,1983-01-01,2013-09-30,38.8672,"FREELANDVILLE, IN US",1,GHCND:USC00123104,METERS,-87.3083,,
432,281.6,1948-07-01,2020-09-19,40.4355,"HARTFORD CITY 4 ESE, IN US",1,GHCND:USC00123777,METERS,-85.2891,,
433,221,1948-07-01,2020-09-18,40.8555,"HUNTINGTON, IN US",1,GHCND:USC00124181,METERS,-85.498,,
434,293.2,1953-01-01,2020-09-18,39.9237,"JAMESTOWN 2 E, IN US",1,GHCND:USC00124356,METERS,-86.5984,,
435,250.5,1901-01-01,2020-09-19,40.4582,"KOKOMO 3 WSW, IN US",1,GHCND:USC00124662,METERS,-86.1758,,
436,248.1,1948-01-01,2018-12-10,40.4614,"KOKOMO 5 WSW, IN US",1,GHCND:USC00124667,METERS,-86.2122,,
437,223.1,1954-01-01,2020-09-12,40.2963,"LAFAYETTE 8 S, IN US",1,GHCND:USC00124715,METERS,-86.9027,,
438,281.9,1997-03-01,2020-09-19,40.0505,"LEBANON 6 W, IN US",1,GHCND:USC00124910,METERS,-86.5744,,
439,256,1992-01-01,1999-12-31,41.33056,"LEESBURG 4 E, IN US",0.9997,GHCND:USC00124918,METERS,-85.78194,,
440,182.9,1891-07-01,2020-08-31,40.7477,"LOGANSPORT CICOTT ST., IN US",1,GHCND:USC00125117,METERS,-86.3877,,
441,139.9,1961-01-01,2001-03-31,23.2667,"CONCORDIA CFE, MX",0.8084,GHCND:MXN00025011,METERS,-106.0667,,
442,127.7,1963-01-01,2001-02-28,23.5,"LA NORIA CFE, MX",0.7647,GHCND:MXN00025052,METERS,-106.3,,
443,36,1959-03-16,1999-09-30,23.3333,"SIQUEROS CFE, MX",0.8205,GHCND:MXN00025091,METERS,-106.2333,,
444,39.9,1966-06-01,2013-03-31,23.3333,"SIQUEROS, MX",0.9406,GHCND:MXN00025119,METERS,-106.2333,,
445,4.9,1983-01-01,1993-12-31,23.1833,"JOSE ACEVES POZOS CFE, MX",0.8942,GHCND:MXN00025192,METERS,-106.3333,,
446,61,1991-08-01,2020-09-18,38.8825,"LINCOLN CALIFORNIA, CA US",0.9999,GHCND:USR0000CLIN,METERS,-121.2683,,
447,1983.9,1980-06-01,2020-09-18,39.3,"TRUCKEE NUMBER 2, CA US",1,GHCND:USS0020K13S,METERS,-120.18,,
448,2028.4,1978-09-30,2020-09-18,39.14,"WARD CREEK NUMBER 3, CA US",0.9999,GHCND:USS0020K25S,METERS,-120.22,,
449,2071.7,1980-06-01,2020-09-18,39.17,"TAHOE CITY CROSS, CA US",1,GHCND:USS0020K27S,METERS,-120.15,,
450,2447.2,1980-08-01,2020-09-18,39.19,"SQUAW VALLEY G.C., CA US",1,GHCND:USS0020K30S,METERS,-120.26,,
451,1608.1,1940-01-01,2020-09-18,39.2774,"BLUE CANYON AIRPORT, CA US",1,GHCND:USW00023225,METERS,-120.7102,,
452,944.9,1893-01-01,2010-12-31,39.118,"IOWA HILL, CA US",1,GHCND:USC00044288,METERS,-120.8405,,
453,1898.9,1903-09-01,2020-09-18,39.1678,"TAHOE CITY, CA US",1,GHCND:USC00048758,METERS,-120.1428,,
454,1327.4,2000-12-01,2020-09-18,39.0914,"FORESTHILL CALIFORNIA, CA US",1,GHCND:USR0000CFOR,METERS,-120.7317,,
455,1597.2,1989-06-01,2020-09-18,39.0717,"HELL HOLE CALIFORNIA, CA US",0.9161,GHCND:USR0000CHEL,METERS,-120.4217,,
456,329.2,1970-10-01,2010-12-31,41.08028,"AKRON, OH US",1,GHCND:USC00330061,METERS,-81.51694,,
457,210.3,1951-01-01,2013-09-01,41.85,"ASHTABULA, OH US",1,GHCND:USC00330264,METERS,-80.8,,
458,344.4,1945-06-01,2020-09-18,41.58732,"CHARDON, OH US",1,GHCND:USC00331458,METERS,-81.19138,,
459,359.7,1895-01-01,2015-05-01,41.0517,"CHIPPEWA LAKE, OH US",1,GHCND:USC00331541,METERS,-81.9361,,
460,298.7,1956-01-01,2018-05-31,41.68333,"DORSET, OH US",1,GHCND:USC00332251,METERS,-80.66667,,
461,222.5,1949-01-01,2014-10-31,41.38139,"ELYRIA 3 E, OH US",1,GHCND:USC00332599,METERS,-82.05583,,
462,235.3,1975-05-01,2020-09-13,41.3048,"ELYRIA 4 S, OH US",1,GHCND:USC00332603,METERS,-82.1174,,
463,228,1988-01-01,2014-05-01,41.61667,"KIRTLAND HOLDEN, OH US",1,GHCND:USC00334258,METERS,-81.3,,
464,249.3,1975-11-01,2012-12-31,41.25,"LAGRANGE 1 NE, OH US",1,GHCND:USC00334319,METERS,-82.1,,
465,248.7,1893-06-01,2020-09-18,41.2802,"OBERLIN, OH US",1,GHCND:USC00336196,METERS,-82.2187,,
466,182.9,1950-01-01,2020-07-31,41.75288,"PAINESVILLE 4 NW, OH US",1,GHCND:USC00336389,METERS,-81.29533,,
467,337.4,1948-08-01,2020-08-31,41.1333,"RAVENNA 2 S, OH US",1,GHCND:USC00336949,METERS,-81.2833,,
468,238,1938-05-01,2020-09-19,41.4057,"CLEVELAND HOPKINS INTERNATIONAL AIRPORT, OH US",1,GHCND:USW00014820,METERS,-81.852,,
469,313.9,1994-01-01,2010-12-31,41.61667,"KIRTLAND HOLDEN 2, OH US",1,GHCND:USC00334260,METERS,-81.3,,
470,224.3,1998-04-01,2013-01-11,37.3818,"LYNCHBURG NUMBER 2, VA US",1,GHCND:USC00445117,METERS,-79.233,,
471,260.6,1901-01-01,2016-12-31,35.0567,"HOLDENVILLE 2 SSE, OK US",1,GHCND:USC00344235,METERS,-96.3861,,
472,297.2,1942-09-01,2018-08-31,34.9613,"KONAWA, OK US",1,GHCND:USC00344915,METERS,-96.75,,
473,259.1,1970-09-01,2010-12-31,35.29278,"LAKE EUFAULA, OK US",1,GHCND:USC00344975,METERS,-95.43222,,
474,343.8,1894-10-01,2020-01-31,35.1809,"NORMAN 3 SSE, OK US",1,GHCND:USC00346386,METERS,-97.4377,,
475,341.4,1893-01-01,2010-12-31,34.98583,"PURCELL 2 SW, OK US",1,GHCND:USC00347327,METERS,-97.38417,,
476,522.7,1900-01-01,2017-05-17,36.0405,"TALOGA, OK US",1,GHCND:USC00348708,METERS,-98.9624,,
477,382.5,1914-04-01,2017-05-31,35.3672,"UNION CITY, OK US",1,GHCND:USC00349086,METERS,-97.8872,,
478,493.2,1905-01-01,2020-09-19,35.5199,"WEATHERFORD, OK US",1,GHCND:USC00349422,METERS,-98.6986,,
479,930.6,1949-01-01,2018-02-28,35.66884,"BORGER, TX US",1,GHCND:USC00410958,METERS,-101.40233,,
480,972.6,1964-01-01,2020-09-18,35.5302,"BOYS RANCH, TX US",1,GHCND:USC00411000,METERS,-102.2563,,
481,1325.3,1941-01-01,1990-07-31,36.15,"BUNKER HILL, TX US",0.8723,GHCND:USC00411224,METERS,-102.93333,,
482,701,1906-01-01,2010-12-31,35.90917,"CANADIAN, TX US",1,GHCND:USC00411412,METERS,-100.38833,,
483,1219.2,1988-01-01,2010-12-31,36.00722,"DALHART 6 SW, TX US",1,GHCND:USC00412235,METERS,-102.61333,,
484,1190.2,1893-01-01,2014-05-31,35.8655,"HARTLEY 4 ESE, TX US",1,GHCND:USC00413981,METERS,-102.3319,,
485,781.5,1907-01-01,2020-09-10,36.1162,"HIGGINS, TX US",1,GHCND:USC00414140,METERS,-100.0238,,
486,837.3,1889-01-01,2015-11-01,35.6935,"MIAMI, TX US",1,GHCND:USC00415875,METERS,-100.6392,,
487,960.1,1964-01-01,2020-09-19,35.5544,"PAMPA NUMBER 2, TX US",1,GHCND:USC00416776,METERS,-100.9736,,
488,1055.5,1911-01-01,2017-10-31,35.3513,"PANHANDLE, TX US",1,GHCND:USC00416785,METERS,-101.3897,,
489,909.8,1978-04-01,2018-06-30,36.1016,"PERRYTON 21 S, TX US",1,GHCND:USC00416952,METERS,-100.7394,,
490,391.7,1941-12-14,2020-09-19,35.3889,"OKLAHOMA CITY WILL ROGERS WORLD AIRPORT, OK US",1,GHCND:USW00013967,METERS,-97.6006,,
491,1511.8,1896-01-01,2020-09-19,36.4486,"CLAYTON MUNICIPAL AIR PARK, NM US",1,GHCND:USW00023051,METERS,-103.1539,,
492,1216.2,1948-01-01,2020-09-19,36.0167,"DALHART FAA AIRPORT, TX US",1,GHCND:USW00093042,METERS,-102.55,,
493,234.7,1893-01-01,2020-09-18,34.8822,"MCALESTER REGIONAL AIRPORT, OK US",1,GHCND:USW00093950,METERS,-95.783,,
494,1354.8,1925-04-01,2020-07-31,35.8741,"AMISTAD 5 SSW, NM US",1,GHCND:USC00290377,METERS,-103.1819,,
495,1722.1,1910-01-01,2020-09-19,36.2994,"PASAMONTE, NM US",1,GHCND:USC00296619,METERS,-103.7408,,
496,1289.3,1907-06-01,2020-07-31,35.1086,"SAN JON, NM US",1,GHCND:USC00297867,METERS,-103.3283,,
497,309.4,1907-01-01,2011-02-15,34.78639,"ADA, OK US",1,GHCND:USC00340017,METERS,-96.685,,
498,740.4,1911-03-01,2020-09-18,36.16534,"ARNETT 3 NE, OK US",1,GHCND:USC00340332,METERS,-99.72029,,
499,388.6,1952-01-01,2020-09-12,35.11833,"BLANCHARD 2 SSW, OK US",1,GHCND:USC00340830,METERS,-97.67,,
500,243.8,1904-09-01,2014-09-01,34.9643,"CALVIN, OK US",0.9864,GHCND:USC00341391,METERS,-96.2495,,
501,189,1896-04-01,2010-12-31,35.19306,"EUFAULA 6 SSW, OK US",1,GHCND:USC00342993,METERS,-95.59028,,
502,478.8,1911-11-01,2020-09-18,35.63056,"GEARY, OK US",1,GHCND:USC00343497,METERS,-98.32167,,
503,207.3,1941-08-01,2010-12-31,35.20278,"HANNA, OK US",1,GHCND:USC00343884,METERS,-95.88972,,
504,543.2,1988-11-01,2010-12-31,35.75222,"THOMAS, OK US",1,GHCND:USC00348815,METERS,-98.74528,,
505,137.5,1914-06-01,2020-09-19,32.9745,"SANDERSVILLE, GA US",1,GHCND:USC00097777,METERS,-82.8045,,
506,2734.1,1924-11-01,2010-12-31,37.7519,"GEM LAKE, CA US",1,GHCND:USC00043369,METERS,-119.1402,,
507,899.2,1973-12-01,2010-12-31,35.2813,"GOLDSTONE ECHO NUMBER 2, CA US",1,GHCND:USC00043498,METERS,-116.7844,,
508,731.5,1966-01-01,2020-09-19,39.2041,"GRASS VALLEY NUMBER 2, CA US",1,GHCND:USC00043573,METERS,-121.068,,
509,61,1926-01-01,2020-07-31,38.4305,"GRATON, CA US",1,GHCND:USC00043578,METERS,-122.8647,,
510,859.5,1941-08-01,2010-12-31,41.5519,"GREENVIEW, CA US",1,GHCND:USC00043614,METERS,-122.9236,,
511,125.9,1979-12-01,2011-08-26,40.4863,"GRIZZLY CREEK STATE, CA US",1,GHCND:USC00043647,METERS,-123.9088,,
512,1165.9,1923-05-01,2016-12-31,36.1388,"HAIWEE, CA US",1,GHCND:USC00043710,METERS,-117.9527,,
513,8.2,1939-07-01,2020-09-18,37.4725,"HALF MOON BAY, CA US",1,GHCND:USC00043714,METERS,-122.4433,,
514,72.2,1899-07-01,2020-09-18,36.3158,"HANFORD 1 S, CA US",1,GHCND:USC00043747,METERS,-119.637,,
515,348.1,1914-01-01,2020-05-05,41.79612,"HAPPY CAMP RANGER STATION, CA US",0.9641,GHCND:USC00043761,METERS,-123.37469,,
516,243.8,1955-07-01,2020-07-31,39.2372,"HARRY L. ENGLEBRIGHT DAM, CA US",1,GHCND:USC00043800,METERS,-121.2666,,
517,919,1921-01-01,2020-07-31,40.9316,"HAT CREEK, CA US",1,GHCND:USC00043824,METERS,-121.5433,,
518,417.6,1933-07-01,2020-09-19,33.7044,"HAYFIELD PUMPING PLANT, CA US",1,GHCND:USC00043855,METERS,-115.6289,,
519,701,1914-01-01,2006-10-31,40.5524,"HAYFORK, CA US",0.8523,GHCND:USC00043859,METERS,-123.2122,,
520,53.9,1893-02-01,2020-07-31,38.62935,"HEALDSBURG, CA US",1,GHCND:USC00043875,METERS,-122.86646,,
521,45.7,1948-01-01,2010-12-31,38.63333,"HEALDSBURG NUMBER 2, CA US",1,GHCND:USC00043878,METERS,-122.86667,,
522,552,1917-01-01,2020-07-31,33.7381,"HEMET, CA US",1,GHCND:USC00043896,METERS,-116.8939,,
523,823,1942-09-01,2020-09-18,33.2372,"HENSHAW DAM, CA US",1,GHCND:USC00043914,METERS,-116.7614,,
524,1179.6,1910-10-01,2020-07-31,37.9613,"HETCH HETCHY, CA US",1,GHCND:USC00043939,METERS,-119.783,,
525,83.8,1948-07-01,2020-09-07,36.8483,"HOLLISTER 2, CA US",1,GHCND:USC00044025,METERS,-121.4213,,
526,2139.7,1915-06-01,2016-03-01,37.2275,"HUNTINGTON LAKE, CA US",1,GHCND:USC00044176,METERS,-119.22056,,
527,1639.8,1943-10-01,2020-09-15,33.7572,"IDYLLWILD FIRE DEPARTMENT, CA US",1,GHCND:USC00044211,METERS,-116.7066,,
528,-19.5,1901-11-01,2020-06-30,32.8488,"IMPERIAL, CA US",1,GHCND:USC00044223,METERS,-115.5666,,
529,688.8,1941-06-01,2020-07-31,34.4908,"JUNCAL DAM, CA US",1,GHCND:USC00044422,METERS,-119.5069,,
530,823.9,1946-10-01,2011-01-31,35.7831,"KERN RIVER PH 3, CA US",1,GHCND:USC00044523,METERS,-118.4389,,
531,400.8,1920-01-01,2001-06-30,39.03333,"LAKEPORT, CA US",0.9397,GHCND:USC00044701,METERS,-122.91667,,
532,2763,1925-01-01,2010-12-31,37.213,"LAKE SABRINA, CA US",1,GHCND:USC00044705,METERS,-118.6136,,
533,1571.5,1902-01-01,2010-12-31,39.31833,"LAKE SPAULDING, CA US",1,GHCND:USC00044713,METERS,-120.63917,,
534,101.5,1941-12-04,2020-09-19,36.78,"FRESNO YOSEMITE INTERNATIONAL, CA US",1,GHCND:USW00093193,METERS,-119.7194,,
535,53,1998-04-01,2020-09-18,34.01583,"SANTA MONICA MUNICIPAL AIRPORT, CA US",1,GHCND:USW00093197,METERS,-118.45139,,
536,18.9,2000-10-01,2020-09-18,39.1019,"MARYSVILLE YUBA CO AIRPORT, CA US",1,GHCND:USW00093205,METERS,-121.5677,,
537,61,1998-04-01,2020-09-18,35.23722,"SAN LUIS OBISPO MCCHESNEY FIELD, CA US",1,GHCND:USW00093206,METERS,-120.64139,,
538,57.9,1998-06-01,2020-09-18,39.49,"OROVILLE MUNICIPAL AIRPORT, CA US",1,GHCND:USW00093210,METERS,-121.61833,,
539,7,1998-05-01,2020-09-18,38.69556,"SACRAMENTO METROPOLITAN AIRPORT, CA US",1,GHCND:USW00093225,METERS,-121.58972,,
540,4.3,1998-05-01,2020-09-18,38.2102,"NAPA CO AIRPORT, CA US",1,GHCND:USW00093227,METERS,-122.2847,,
541,13.1,1998-09-01,2020-09-19,37.6542,"HAYWARD AIR TERMINAL, CA US",1,GHCND:USW00093228,METERS,-122.115,,
542,33.2,1998-04-01,2020-09-18,38.3775,"VACAVILLE NUT TREE AIRPORT, CA US",1,GHCND:USW00093241,METERS,-121.9575,,
543,77.1,1998-09-01,2020-09-18,36.98778,"MADERA MUNICIPAL AIRPORT, CA US",1,GHCND:USW00093242,METERS,-120.11056,,
544,23.8,2004-03-01,2020-09-17,37.2381,"MERCED 23 WSW, CA US",1,GHCND:USW00093243,METERS,-120.8825,,
545,1244.8,1959-01-01,2020-09-18,42.14694,"KLAMATH FALLS INTERNATIONAL AIRPORT, OR US",1,GHCND:USW00094236,METERS,-121.72417,,
546,1333.5,1998-06-01,2020-09-18,41.49139,"ALTURAS MUNICIPAL AIRPORT, CA US",1,GHCND:USW00094299,METERS,-120.56444,,
547,26.5,1994-01-01,2020-08-31,38.2177,"ACAMPO 5 NE, CA US",1,GHCND:USC00040010,METERS,-121.2013,,
548,863.5,1918-10-01,2014-09-30,34.4938,"ACTON ESCONDIDO CANYON, CA US",1,GHCND:USC00040014,METERS,-118.2713,,
549,343.5,1922-01-01,2020-07-31,34.18211,"ALTADENA, CA US",1,GHCND:USC00040144,METERS,-118.13827,,
550,143.3,1999-01-01,2020-09-19,35.4186,"BAKERSFIELD 5 NW, CA US",1,GHCND:USC00040444,METERS,-119.0508,,
551,61,1915-01-01,2020-09-18,36.2472,"BIG SUR STATION, CA US",1,GHCND:USC00040790,METERS,-121.7802,,
552,709,1932-01-01,2020-07-31,34.29481,"BIG TUJUNGA DAM FC46, CA US",1,GHCND:USC00040798,METERS,-118.18849,,
553,2581.7,2003-05-01,2020-09-19,37.2321,"ASPENDELL, CA US",0.7978,GHCND:USC00040820,METERS,-118.5994,,
554,613,1893-01-01,1984-09-19,37.48333,"MARIPOSA, CA US",0.8229,GHCND:USC00045346,METERS,-119.96667,,
555,17.4,1897-02-01,2010-12-31,39.1458,"MARYSVILLE, CA US",1,GHCND:USC00045385,METERS,-121.5852,,
556,52.1,1948-01-01,1984-09-30,36.78333,"MENDOTA DAM, CA US",0.9931,GHCND:USC00045528,METERS,-120.36667,,
557,1965.7,1944-01-01,1988-02-29,38,"MONO LAKE, CA US",0.8941,GHCND:USC00045779,METERS,-119.15,,
558,75,1979-01-01,2011-02-26,34.0191,"MONTEBELLO, CA US",1,GHCND:USC00045790,METERS,-118.1052,,
559,36,1959-01-01,2020-07-31,35.367,"MORRO BAY FIRE DEPARTMENT, CA US",1,GHCND:USC00045866,METERS,-120.8447,,
560,661.4,1952-01-01,2020-07-31,37.8792,"MOUNT DIABLO JUNCTION, CA US",1,GHCND:USC00045915,METERS,-121.9303,,
561,1282,1948-01-01,2020-09-17,37.3436,"MOUNT HAMILTON, CA US",1,GHCND:USC00045933,METERS,-121.6425,,
562,1295.4,1907-01-01,2020-04-01,41.7836,"MOUNT HEBRON RANGER STATION, CA US",0.6728,GHCND:USC00045941,METERS,-122.0447,,
563,1101.2,1948-01-01,2020-09-18,41.32191,"MOUNT SHASTA, CA US",0.9681,GHCND:USC00045983,METERS,-122.31777,,
564,1740.4,1948-01-01,2016-12-31,34.2308,"MOUNT WILSON CBS, CA US",1,GHCND:USC00046006,METERS,-118.0711,,
565,67.1,1940-12-01,2020-07-31,37.8977,"MUIR WOODS, CA US",1,GHCND:USC00046027,METERS,-122.5688,,
566,10.7,1893-01-01,2020-09-18,38.2777,"NAPA STATE HOSPITAL, CA US",1,GHCND:USC00046074,METERS,-122.2647,,
567,530,1972-11-01,2010-12-31,45.7,"GIBBON, OR US",1,GHCND:USC00353250,METERS,-118.36667,,
568,195.1,1906-07-01,2013-03-01,45.82889,"HERMISTON 1 SE, OR US",1,GHCND:USC00353847,METERS,-119.26361,,
569,295.7,1928-01-01,2020-05-31,45.9428,"MILTON FREEWATER, OR US",1,GHCND:USC00355593,METERS,-118.4089,,
570,524.3,1908-01-01,2020-07-31,45.4756,"PILOT ROCK 1 SE, OR US",1,GHCND:USC00356634,METERS,-118.8253,,
571,1016.8,1922-01-01,2019-01-28,45.13586,"UKIAH, OR US",1,GHCND:USC00358726,METERS,-118.93888,,
572,1158.2,1980-06-22,2020-09-18,45.56,"EMIGRANT SPRINGS, OR US",1,GHCND:USS0018D04S,METERS,-118.45,,
573,1514.9,1978-09-30,2020-09-18,45.27,"LUCKY STRIKE, OR US",1,GHCND:USS0018D06S,METERS,-118.85,,
574,1472.2,1980-06-24,2020-09-18,45.19,"CO LINE, OR US",1,GHCND:USS0018D08S,METERS,-118.55,,
575,1499.6,1978-09-30,2020-09-18,45.7,"HIGH RIDGE, OR US",1,GHCND:USS0018D19S,METERS,-118.11,,
576,1380.7,1978-09-30,2020-09-18,45.36,"BOWMAN SPRINGS, OR US",1,GHCND:USS0018D20S,METERS,-118.47,,
577,452.9,1928-01-01,2020-09-19,45.6983,"PENDLETON E OR REGIONAL AIRPORT, OR US",1,GHCND:USW00024155,METERS,-118.8547,,
578,453.2,1932-12-01,2020-08-31,45.7206,"PENDLETON BRANCH EXPERIMENTAL STATION, OR US",1,GHCND:USC00356540,METERS,-118.6264,,
579,317,1892-09-01,2019-07-22,45.6703,"PENDLETON DOWNTOWN, OR US",1,GHCND:USC00356541,METERS,-118.7964,,
580,298.7,1938-04-01,2010-12-31,34.82611,"LINDSAY 2 W, OK US",1,GHCND:USC00345216,METERS,-97.63861,,
581,299,1984-01-01,2013-10-01,34.32806,"LOCO, OK US",1,GHCND:USC00345247,METERS,-97.67944,,
582,234.7,1936-12-01,2020-09-19,34.0919,"MADILL, OK US",1,GHCND:USC00345468,METERS,-96.7708,,
583,244.4,1937-09-01,2020-09-16,33.8761,"MARIETTA 5 SW, OK US",1,GHCND:USC00345563,METERS,-97.1641,,
584,385.3,1900-01-01,2020-09-18,34.6368,"MARLOW 1 WSW, OK US",1,GHCND:USC00345581,METERS,-97.9786,,
585,204.8,1982-07-01,2020-09-18,34.30983,"MCGEE CREEK DAM, OK US",1,GHCND:USC00345713,METERS,-95.86748,,
586,286.5,1893-01-01,2013-01-01,34.72528,"PAULS VALLEY 4 WSW, OK US",1,GHCND:USC00346926,METERS,-97.28139,,
587,324.6,1941-09-01,2020-09-18,34.5052,"PONTOTOC 1 N, OK US",1,GHCND:USC00347214,METERS,-96.6223,,
588,202.4,1902-01-01,2020-09-18,34.20695,"TISHOMINGO NATIONAL WLR, OK US",1,GHCND:USC00348884,METERS,-96.64242,,
589,278,1910-01-01,2010-12-31,34.17472,"WAURIKA, OK US",1,GHCND:USC00349395,METERS,-97.99639,,
590,302.1,1987-05-01,1997-05-31,34.23333,"WAURIKA DAM, OK US",0.9991,GHCND:USC00349399,METERS,-98.05,,
591,256.3,1901-01-01,2020-09-18,34.1773,"ARDMORE, OK US",1,GHCND:USC00340292,METERS,-97.1617,,
592,181.4,1963-01-01,1999-12-31,34.45,"ATOKA DAM, OK US",1,GHCND:USC00340394,METERS,-96.06667,,
593,192,1992-03-01,2009-03-31,34.01583,"BOKCHITO, OK US",0.9756,GHCND:USC00340917,METERS,-96.13417,,
594,319.1,1978-11-01,2020-07-31,34.49672,"CHICKASAW NRA, OK US",1,GHCND:USC00341745,METERS,-96.97052,,
595,312.4,1952-05-01,2018-12-31,34.3622,"COMANCHE, OK US",1,GHCND:USC00342054,METERS,-97.9737,,
596,223.7,1944-07-01,2020-09-18,34.54377,"DAISY 4 ENE, OK US",1,GHCND:USC00342354,METERS,-95.67635,,
597,342.9,1936-10-01,2020-09-19,34.5011,"DUNCAN, OK US",1,GHCND:USC00342660,METERS,-97.9591,,
598,182.9,1901-01-01,2020-09-18,34,"DURANT, OK US",1,GHCND:USC00342678,METERS,-96.3686,,
599,310.9,1947-01-01,2020-09-17,34.61,"ELMORE CITY 3 SW, OK US",1,GHCND:USC00342872,METERS,-97.42222,,
600,155.4,1944-07-01,2016-03-01,34.26667,"FARRIS 3 WNW, OK US",1,GHCND:USC00343083,METERS,-95.91667,,
601,272.8,1992-03-01,2017-03-31,34.0225,"GRADY, OK US",0.9999,GHCND:USC00343688,METERS,-97.6341,,
602,413.6,1993-01-01,2020-09-19,34.62877,"HEADRICK, OK US",1,GHCND:USC00343998,METERS,-99.13941,,
603,274.9,1894-01-01,2020-09-18,34.2332,"HEALDTON 3 E, OK US",1,GHCND:USC00344001,METERS,-97.4202,,
604,294.4,1993-01-01,2020-09-18,34.5797,"HENNEPIN 5 N, OK US",1,GHCND:USC00344052,METERS,-97.351,,
605,208.5,1946-01-01,2010-12-31,33.93,"KINGSTON, OK US",1,GHCND:USC00344865,METERS,-96.69611,,
606,211.8,1893-01-01,2020-09-17,34.4339,"LEHIGH, OK US",1,GHCND:USC00345108,METERS,-96.2717,,
607,291.7,1993-01-01,2011-01-15,34.50111,"TUSSY, OK US",1,GHCND:USC00349032,METERS,-97.54333,,
608,297.2,1952-05-01,2020-09-19,34.165,"ALLATOONA DAM 2, GA US",1,GHCND:USC00090181,METERS,-84.73,,
609,240.5,1891-10-01,2019-02-09,34.2043,"CARTERSVILLE, GA US",1,GHCND:USC00091665,METERS,-84.7925,,
610,234.7,1937-01-01,2020-09-17,34.1825,"CARTERSVILLE NUMBER 2, GA US",1,GHCND:USC00091670,METERS,-84.7958,,
611,126.5,1883-03-01,2020-09-18,35.9327,"MILAN EXPERIMENTAL STATION, TN US",1,GHCND:USC00406012,METERS,-88.7268,,
612,313,1943-01-01,2020-09-18,18.783,"CHIANG MAI, TH",0.9557,GHCND:TH000048327,METERS,98.983,,
613,268.2,1955-01-01,2020-07-31,37.0348,"CEDAR VALE 5 SSE, KS US",1,GHCND:USC00141395,METERS,-96.463,,
614,243.8,1896-03-01,2010-12-31,37.00722,"ELGIN, KS US",1,GHCND:USC00142409,METERS,-96.27222,,
615,258.8,1964-04-01,2016-03-01,37.2775,"ELK CITY LAKE, KS US",1,GHCND:USC00142430,METERS,-95.77694,,
616,335.3,1895-05-01,2020-08-31,37.8253,"EUREKA 1 E, KS US",1,GHCND:USC00142622,METERS,-96.2644,,
617,314.2,1896-11-01,2020-07-31,37.6475,"FALL RIVER LAKE, KS US",1,GHCND:USC00142686,METERS,-96.078,,
618,272.2,1902-04-01,2020-09-18,37.534,"FREDONIA, KS US",1,GHCND:USC00142894,METERS,-95.827,,
619,307.8,1907-03-01,2020-08-28,37.4663,"HOWARD, KS US",1,GHCND:USC00143822,METERS,-96.2713,,
620,245.4,1893-01-01,2020-09-19,37.2363,"INDEPENDENCE, KS US",1,GHCND:USC00143954,METERS,-95.7002,,
621,278.9,1951-01-01,2020-09-12,37.3833,"LONGTON, KS US",1,GHCND:USC00144812,METERS,-96.0814,,
622,348.7,1900-02-01,2020-09-12,38.1357,"MADISON, KS US",1,GHCND:USC00144937,METERS,-96.1399,,
623,243.8,1951-01-01,2020-09-16,37.1873,"MOUND VALLEY 3 WSW, KS US",1,GHCND:USC00145536,METERS,-95.4508,,
624,274.9,1893-01-01,2020-09-19,37.1322,"SEDAN, KS US",1,GHCND:USC00147305,METERS,-96.18,,
625,411.8,1951-05-01,2020-09-10,37.97262,"THRALL 3 SSE, KS US",1,GHCND:USC00148114,METERS,-96.30156,,
626,289.6,1956-03-01,2016-03-01,37.74167,"TORONTO LAKE, KS US",1,GHCND:USC00148191,METERS,-95.93333,,
627,311.5,1952-05-01,2018-09-30,37.983,"VIRGIL, KS US",0.9778,GHCND:USC00148436,METERS,-96.0086,,
628,338.9,1893-01-01,2020-09-18,37.88331,"YATES CENTER, KS US",1,GHCND:USC00149080,METERS,-95.72765,,
629,234.7,1943-10-01,2010-12-31,36.56528,"BARNSDALL, OK US",1,GHCND:USC00340535,METERS,-96.16639,,
630,179.2,1900-04-01,2020-06-18,36.3225,"CLAREMORE 2 ENE, OK US",1,GHCND:USC00341828,METERS,-95.5808,,
631,277.4,1940-04-01,2010-12-31,36.88056,"HOLLOW, OK US",1,GHCND:USC00344258,METERS,-95.28667,,
632,226.8,1946-06-01,2016-03-01,36.91667,"HULAH DAM, OK US",1,GHCND:USC00344393,METERS,-96.1,,
633,225.6,1951-09-01,2011-06-30,36.8472,"LENAPAH, OK US",1,GHCND:USC00345118,METERS,-95.6352,,
634,216.4,1936-07-01,2010-12-31,36.69167,"NOWATA, OK US",1,GHCND:USC00346485,METERS,-95.64361,,
635,254.5,1898-01-01,2016-07-31,36.6691,"PAWHUSKA, OK US",1,GHCND:USC00346935,METERS,-96.3472,,
636,196.6,1944-01-01,2010-12-31,36.365,"SKIATOOK, OK US",1,GHCND:USC00348258,METERS,-96.00278,,
637,179.8,1895-04-01,2010-12-31,35.9675,"WAGONER, OK US",1,GHCND:USC00349247,METERS,-95.37389,,
638,217.9,1920-01-01,2020-09-18,36.7683,"BARTLESVILLE MUNICIPAL AIRPORT, OK US",1,GHCND:USW00003959,METERS,-96.0261,,
639,198.1,1938-12-01,2020-09-19,36.1994,"TULSA INTERNATIONAL AIRPORT, OK US",1,GHCND:USW00013968,METERS,-95.8872,,
640,353.3,1893-01-01,2020-09-18,37.3594,"GRENOLA 1 N, KS US",1,GHCND:USC00143248,METERS,-96.4496,,
641,1280.2,1991-09-01,2020-09-18,34.0178,"LOST HORSE CALIFORNIA, CA US",1,GHCND:USR0000CLHO,METERS,-116.1878,,
642,310.9,1997-10-01,2020-09-18,34.5358,"LOS PRIETOS CALIFORNIA, CA US",0.9955,GHCND:USR0000CLOP,METERS,-119.7833,,
643,303,1990-05-01,2020-09-18,35.6564,"LAS TABLAS CALIFORNIA, CA US",0.9999,GHCND:USR0000CLST,METERS,-120.9242,,
644,480.1,1995-01-01,2020-09-18,34.0583,"MALIBU HILLS CALIFORNIA, CA US",0.9883,GHCND:USR0000CMAL,METERS,-118.6333,,
645,1725.2,1990-06-01,2020-09-18,40.54,"MANZANITA LAKE CALIFORNIA, CA US",0.8871,GHCND:USR0000CMAN,METERS,-121.5803,,
646,512.1,1995-01-01,2006-03-06,40.7964,"MAPLE CREEK CALIFORNIA, CA US",0.9928,GHCND:USR0000CMAP,METERS,-123.9367,,
647,1950.7,1988-09-01,2012-01-16,37.5128,"MARIPOSA GROVE CALIFORNIA, CA US",0.8007,GHCND:USR0000CMAR,METERS,-119.6047,,
648,899.2,1998-02-01,2020-09-18,34.0836,"MILL CREEK BDF CALIFORNIA, CA US",1,GHCND:USR0000CMCB,METERS,-117.0347,,
649,180.7,1990-05-01,2020-09-18,39.3528,"MCGUIRES CALIFORNIA, CA US",0.8775,GHCND:USR0000CMCG,METERS,-123.6011,,
650,883.9,1995-11-01,2020-09-18,34.3906,"MEANS LAKE CALIFORNIA, CA US",1,GHCND:USR0000CMEA,METERS,-116.5169,,
651,937.9,1990-05-01,2020-09-18,37.4094,"METCALF GAP CALIFORNIA, CA US",0.9903,GHCND:USR0000CMET,METERS,-119.7681,,
652,1649.9,1991-09-01,2020-09-18,35.1231,"MID HILLS CALIFORNIA, CA US",0.9966,GHCND:USR0000CMID,METERS,-115.4114,,
653,1530.4,1989-04-01,2020-09-18,34.3903,"MILL CREEK ANF CALIFORNIA, CA US",0.9382,GHCND:USR0000CMIL,METERS,-118.0825,,
654,621.8,1998-10-01,2020-09-18,37.8172,"MALLORY RIDGE CALIFORNIA, CA US",1,GHCND:USR0000CMLR,METERS,-121.7789,,
655,457.2,1996-09-01,2020-09-18,34.4614,"MONTECITO CALIFORNIA, CA US",1,GHCND:USR0000CMNC,METERS,-119.6481,,
656,289.6,1988-03-01,2011-12-07,35.0531,"MOJAVE RIVER SINK CALIFORNIA, CA US",0.9964,GHCND:USR0000CMOJ,METERS,-116.0794,,
657,1249.7,1999-04-01,2020-09-18,37.0544,"MOUNTAIN REST CALIFORNIA, CA US",0.9999,GHCND:USR0000CMOU,METERS,-119.3711,,
658,0,1999-07-01,2020-09-18,41.3156,"MOUNT SHASTA CALIFORNIA, CA US",0.9998,GHCND:USR0000CMS2,METERS,-122.3156,,
659,680,1990-05-01,2020-09-18,37.5042,"MARIPOSA CALIFORNIA, CA US",0.9535,GHCND:USR0000CMSA,METERS,-119.9869,,
660,902.2,1990-05-01,2020-09-18,38.3894,"MOUNT ZION CALIFORNIA, CA US",0.9999,GHCND:USR0000CMTZ,METERS,-120.6511,,
661,829.1,1998-08-01,2020-09-18,37.2331,"NORTH FORK CALIFORNIA, CA US",1,GHCND:USR0000CNFO,METERS,-119.5047,,
662,404.2,2001-08-01,2010-06-02,40.6506,"OAK BOTTOM CALIFORNIA, CA US",1,GHCND:USR0000COAB,METERS,-122.6056,,
663,1479.8,1994-10-01,2020-09-18,36.8425,"OAK CREEK CALIFORNIA, CA US",0.9884,GHCND:USR0000COCR,METERS,-118.2594,,
664,233.2,2000-06-01,2013-01-03,34.4483,"OJAI CALIFORNIA, CA US",0.9997,GHCND:USR0000COJA,METERS,-119.2303,,
665,838.8,1995-03-01,2020-09-18,33.3933,"OAK GROVE CALIFORNIA, CA US",0.9998,GHCND:USR0000COKG,METERS,-116.795,,
666,427.6,1992-06-01,2020-09-18,37.865,"OAKLAND NORTH CALIFORNIA, CA US",0.9825,GHCND:USR0000COKN,METERS,-122.2208,,
667,987.6,1996-02-01,2020-09-18,36.1753,"OAK OPENING CALIFORNIA, CA US",0.9877,GHCND:USR0000COKO,METERS,-118.7017,,
668,333.8,1992-08-01,2020-09-18,37.7861,"OAKLAND SOUTH CALIFORNIA, CA US",0.9472,GHCND:USR0000COKS,METERS,-122.1447,,
669,987.6,1991-09-01,2020-09-18,35.1542,"OPAL MOUNTAIN CALIFORNIA, CA US",0.9898,GHCND:USR0000COPA,METERS,-117.1756,,
670,1414.3,1992-09-01,2020-09-18,37.39,"OWENS VALLEY CALIFORNIA, CA US",1,GHCND:USR0000COWV,METERS,-118.5506,,
671,1118.6,2001-08-01,2020-09-18,34.6819,"OZENA CALIFORNIA, CA US",1,GHCND:USR0000COZE,METERS,-119.3539,,
672,2097,1988-03-01,2015-07-16,36.1203,"PANAMINT CALIFORNIA, CA US",1,GHCND:USR0000CPAN,METERS,-117.0878,,
673,467.9,1990-05-01,2020-09-18,35.8989,"PARKFIELD CALIFORNIA, CA US",0.9999,GHCND:USR0000CPAR,METERS,-120.4319,,
674,2033,2001-06-01,2020-09-18,39.6375,"SADDLEBACK CALIFORNIA, CA US",0.7809,GHCND:USR0000CSDD,METERS,-120.8653,,
675,395.6,1990-04-01,2020-09-18,33.9778,"SANTA ROSA ISLAND CALIFORNIA, CA US",0.9871,GHCND:USR0000CSRI,METERS,-120.0778,,
676,603.5,1993-04-01,2020-09-18,33.5286,"SANTA ROSA PLATEAU CALIFORNIA, CA US",1,GHCND:USR0000CSRO,METERS,-117.2306,,
677,324,1929-09-01,2019-06-30,51.9,"KYZYL OZEK, RS",0.9546,GHCND:RSE00152210,METERS,86,,
678,1204,1954-01-01,2020-09-18,44.5248,"MOUNT MANSFIELD, VT US",1,GHCND:USC00435416,METERS,-72.8154,,
679,231.6,1962-01-01,2010-12-31,44.5139,"MORRISVILLE 4 SSW, VT US",1,GHCND:USC00435376,METERS,-72.6236,,
680,223.1,1996-07-01,2020-09-18,44.53444,"MORRISVILLE STOWE STATE AIRPORT, VT US",1,GHCND:USW00054771,METERS,-72.61444,,
681,443.8,1997-12-01,2012-04-30,44.6722,"EDEN 2 S, VT US",1,GHCND:USC00432698,METERS,-72.5572,,
682,312.1,1943-07-01,2016-03-01,34.5444,"LOS PRIETOS RANGER STATION, CA US",1,GHCND:USC00045147,METERS,-119.7913,,
683,205.7,1911-09-01,1993-07-31,35.08333,"MARICOPA, CA US",0.9685,GHCND:USC00045338,METERS,-119.38333,,
684,847.6,1893-02-01,2020-09-16,39.2466,"NEVADA CITY, CA US",1,GHCND:USC00046136,METERS,-121.0008,,
685,3,1906-01-01,2020-08-31,37.5147,"NEWARK, CA US",1,GHCND:USC00046144,METERS,-122.0325,,
686,658.4,1974-01-01,2020-09-15,34.9455,"NEW CUYAMA FIRE STATION, CA US",1,GHCND:USC00046154,METERS,-119.6827,,
687,375.8,1906-03-01,2010-12-31,34.3869,"NEWHALL S FC32CE, CA US",1,GHCND:USC00046162,METERS,-118.5341,,
688,236.2,1979-02-01,2010-12-31,37.95,"NEW MELONES DAM, CA US",1,GHCND:USC00046172,METERS,-120.53333,,
689,3,1921-01-01,2020-09-18,33.6031,"NEWPORT BEACH HARBOR, CA US",1,GHCND:USC00046175,METERS,-117.8836,,
690,806.2,1904-01-01,2020-09-04,37.2329,"NORTH FORK RANGER STATION, CA US",1,GHCND:USC00046252,METERS,-119.5097,,
691,838.2,1978-06-01,2007-11-01,33.3861,"OAK GROVE R S, CA US",0.9313,GHCND:USC00046319,METERS,-116.7916,,
692,9.1,1970-10-01,2020-09-18,37.7983,"OAKLAND MUSEUM, CA US",1,GHCND:USC00046336,METERS,-122.2642,,
693,263.7,1943-01-01,2020-09-18,38.3858,"OCCIDENTAL, CA US",1,GHCND:USC00046370,METERS,-122.9661,,
694,3,1909-10-01,2020-09-15,33.2097,"OCEANSIDE MARINA, CA US",1,GHCND:USC00046377,METERS,-117.395,,
695,125,1971-06-01,2010-12-31,32.74611,"OCOTILLO 2, CA US",1,GHCND:USC00046390,METERS,-116.00056,,
696,227.1,1905-05-01,2020-09-18,34.4477,"OJAI, CA US",1,GHCND:USC00046399,METERS,-119.2275,,
697,48.8,1937-05-01,2012-10-31,41.3619,"ORICK PRAIRIE, CA US",1,GHCND:USC00046498,METERS,-124.0191,,
698,77.4,1903-03-01,2020-09-18,39.7458,"ORLAND, CA US",1,GHCND:USC00046506,METERS,-122.1997,,
699,122.8,1903-04-01,2016-07-31,41.3088,"ORLEANS, CA US",1,GHCND:USC00046508,METERS,-123.5316,,
700,52.1,1953-01-01,2020-07-31,39.5177,"OROVILLE, CA US",1,GHCND:USC00046521,METERS,-121.553,,
701,14.9,1923-06-01,2010-12-31,34.19806,"OXNARD, CA US",1,GHCND:USC00046569,METERS,-119.17528,,
702,1051.6,1941-11-01,2020-06-30,38.7583,"PACIFIC HOUSE, CA US",1,GHCND:USC00046597,METERS,-120.503,,
703,472.4,1943-05-01,2020-07-31,34.3294,"PACOIMA DAM FC33A E, CA US",1,GHCND:USC00046602,METERS,-118.4005,,
704,275.8,1948-07-01,2011-05-31,36.715,"PAICINES 4 W, CA US",1,GHCND:USC00046610,METERS,-121.34917,,
705,796.1,1903-01-01,2020-07-31,34.5883,"PALMDALE, CA US",1,GHCND:USC00046624,METERS,-118.0938,,
706,129.5,1906-03-01,2020-06-30,33.8275,"PALM SPRINGS, CA US",1,GHCND:USC00046635,METERS,-116.5097,,
707,7.6,1953-01-01,2017-12-30,37.4436,"PALO ALTO, CA US",1,GHCND:USC00046646,METERS,-122.1402,,
708,541,1943-05-01,2010-12-31,36.35028,"PALOMA, CA US",1,GHCND:USC00046650,METERS,-121.54,,
709,1691.6,1901-01-01,2020-08-31,33.378,"PALOMAR MOUNTAIN OBSERVATORY, CA US",1,GHCND:USC00046657,METERS,-116.84,,
710,67.1,1949-01-01,2020-07-31,33.7997,"PALOS VERDES ES FC43D, CA US",1,GHCND:USC00046663,METERS,-118.391,,
711,426.7,1949-12-01,2020-07-31,36.6066,"PANOCHE 2 W, CA US",1,GHCND:USC00046675,METERS,-120.8841,,
712,533.4,1957-01-01,2020-08-26,39.7538,"PARADISE, CA US",1,GHCND:USC00046685,METERS,-121.6241,,
713,263.3,1893-01-01,2020-09-13,34.1483,"PASADENA, CA US",1,GHCND:USC00046719,METERS,-118.1447,,
714,222.5,1894-01-01,2020-09-16,35.6277,"PASO ROBLES, CA US",1,GHCND:USC00046730,METERS,-120.6855,,
715,1179,1915-12-01,1987-11-30,34.93333,"PATTIWAY, CA US",0.9699,GHCND:USC00046754,METERS,-119.38333,,
716,6.1,1893-01-01,2020-09-18,38.2577,"PETALUMA AIRPORT, CA US",1,GHCND:USC00046826,METERS,-122.6077,,
717,398.4,1937-01-01,2020-07-28,36.4819,"PINNACLES NM, CA US",1,GHCND:USC00046926,METERS,-121.1822,,
718,256,1931-02-01,2020-09-18,42.9108,"STOUGHTON, WI US",1,GHCND:USC00478229,METERS,-89.2133,,
719,284.4,1995-01-01,2020-09-18,42.9675,"MILWAUKEE WSFO DOUSMAN, WI US",1,GHCND:USC00478316,METERS,-88.5497,,
720,267.9,2005-01-01,2020-09-18,43.4719,"TOWN OF WESTFORD, WI US",1,GHCND:USC00478540,METERS,-88.8824,,
721,251.5,1893-01-01,2020-09-19,43.17424,"WATERTOWN WWTP, WI US",1,GHCND:USC00478919,METERS,-88.73633,,
722,266.7,1941-06-01,2020-09-19,42.8508,"WHITEWATER, WI US",1,GHCND:USC00479190,METERS,-88.7247,,
723,254.5,1922-01-01,2020-09-10,43.6088,"WISCONSIN DELLS, WI US",1,GHCND:USC00479319,METERS,-89.7666,,
724,264,1939-10-01,2020-09-19,43.1405,"MADISON DANE CO REGIONAL AIRPORT, WI US",1,GHCND:USW00014837,METERS,-89.3452,,
725,232.3,1987-08-01,2020-09-19,42.63753,"AFTON JANESVILLE WWTP, WI US",1,GHCND:USC00470045,METERS,-89.06424,,
726,265.2,1971-10-01,2020-09-15,43.04118,"UW ARBORETUM MADISON, WI US",1,GHCND:USC00470273,METERS,-89.42872,,
727,320.6,1962-01-01,2020-09-19,43.30417,"ARLINGTON, WI US",1,GHCND:USC00470308,METERS,-89.3453,,
728,262.4,1893-01-01,2020-09-19,43.44274,"BEAVER DAM WWTP, WI US",1,GHCND:USC00470645,METERS,-88.84517,,
729,240.2,1893-01-01,2020-09-19,42.50383,"BELOIT, WI US",1,GHCND:USC00470696,METERS,-89.0311,,
730,237.7,1897-11-01,2020-09-19,42.61819,"BRODHEAD WWTP, WI US",1,GHCND:USC00471078,METERS,-89.38662,,
731,318.8,1959-01-01,2020-09-19,43.05959,"CHARMANY FARM, WI US",1,GHCND:USC00471416,METERS,-89.48185,,
732,281.6,1948-08-01,2020-09-19,42.54907,"CLINTON WWTP, WI US",1,GHCND:USC00471667,METERS,-88.87544,,
733,264,1910-11-01,2016-03-01,43.0769,"COTTAGE GROVE, WI US",1,GHCND:USC00471840,METERS,-89.1911,,
734,243.8,1941-09-01,2020-09-19,42.905,"FORT ATKINSON, WI US",1,GHCND:USC00472869,METERS,-88.8588,,
735,268.5,1970-01-01,2020-09-19,43.4388,"HORICON WWTP, WI US",1,GHCND:USC00473756,METERS,-88.63133,,
736,263.3,2005-11-01,2018-09-30,43.34,"HUSTISFORD WWTP, WI US",1,GHCND:USC00473820,METERS,-88.6005,,
737,238.7,2004-09-01,2020-09-19,42.99417,"JEFFERSON WWTP, WI US",1,GHCND:USC00474108,METERS,-88.80413,,
738,247.2,1893-01-01,2020-09-18,43.08029,"LAKE MILLS WWTP, WI US",1,GHCND:USC00474482,METERS,-88.89661,,
739,251.2,2005-01-01,2020-09-19,43.3216,"LODI, WI US",1,GHCND:USC00474790,METERS,-89.5311,,
740,232.9,2001-11-01,2020-09-14,43.17043,"MAZOMANIE WWTP, WI US",1,GHCND:USC00475189,METERS,-89.81968,,
741,267,2007-01-01,2020-09-19,42.7797,"MILTON, WI US",1,GHCND:USC00475473,METERS,-88.9441,,
742,301.8,1948-08-01,2020-09-19,42.5994,"MONROE 1 W, WI US",1,GHCND:USC00475573,METERS,-89.668,,
743,239.3,1889-01-01,2020-09-19,43.53056,"PORTAGE WWTP, WI US",1,GHCND:USC00476718,METERS,-89.43697,,
744,243.5,2003-01-01,2009-01-01,43.41222,"POYNETTE 7 WNW, WI US",0.9991,GHCND:USC00476796,METERS,-89.53083,,
745,237.7,1908-03-01,2016-03-01,43.31,"PRAIRIE DU SAC 2 N, WI US",1,GHCND:USC00476838,METERS,-89.72833,,
746,243.8,2007-01-01,2020-09-19,43.18794,"WATERLOO WWTP, WI US",1,GHCND:USC00478910,METERS,-88.98496,,
747,306.9,1998-06-01,2020-09-12,43.4514,"HORICON 2.1 ENE, WI US",1,GHCND:US1WIDD0003,METERS,-88.5956,,
748,260.9,2007-05-01,2013-10-01,43.089135,"LAKE MILLS 3.6 WNW, WI US",1,GHCND:US1WIJF0003,METERS,-88.976506,,
749,375.8,1894-03-01,2020-09-12,37.28851,"WINFIELD 3 NE, KS US",1,GHCND:USC00148964,METERS,-96.94076,,
750,300.2,1894-01-01,2020-09-18,37.67028,"CHANUTE MARTIN JOHNSON AIRPORT, KS US",1,GHCND:USW00013981,METERS,-95.48417,,
751,435.9,1953-10-01,2015-06-30,37.4372,"ATLANTA, KS US",0.9906,GHCND:USC00140424,METERS,-96.7669,,
752,390.8,1896-01-01,2020-09-19,37.6983,"AUGUSTA, KS US",1,GHCND:USC00140447,METERS,-96.9705,,
753,449.6,1975-10-01,2020-09-18,38.078,"BURNS 1 S, KS US",0.9691,GHCND:USC00141173,METERS,-96.8877,,
754,381.6,1982-01-01,2020-09-11,37.315,"CAMBRIDGE, KS US",1,GHCND:USC00141239,METERS,-96.6625,,
755,463.3,1948-08-01,2020-06-30,38.0212,"CASSODAY 2 SE, KS US",1,GHCND:USC00141351,METERS,-96.6036,,
756,272.2,1892-12-01,2020-09-19,37.1766,"COLUMBUS, KS US",1,GHCND:USC00141740,METERS,-94.8428,,
757,393.2,1893-01-01,2020-09-18,37.8182,"EL DORADO, KS US",1,GHCND:USC00142401,METERS,-96.8444,,
758,269.4,1895-03-01,2020-04-05,37.81718,"FORT SCOTT, KS US",1,GHCND:USC00142835,METERS,-94.69872,,
759,301.4,1979-01-01,2020-09-19,37.48567,"GALESBURG 1 NNE, KS US",1,GHCND:USC00142945,METERS,-95.35194,,
760,301.8,1957-01-01,2020-09-18,37.5081,"GIRARD, KS US",1,GHCND:USC00143074,METERS,-94.8394,,
761,290.8,1904-09-01,2020-09-17,37.9233,"IOLA 1 W, KS US",1,GHCND:USC00143984,METERS,-95.4241,,
762,253,1953-07-01,1992-04-30,37.3,"MC CUNE 6 SW, KS US",0.9871,GHCND:USC00145123,METERS,-95.1,,
763,336.8,1895-11-01,2020-09-12,37.9131,"MORAN, KS US",1,GHCND:USC00145463,METERS,-95.1742,,
764,254.5,1893-01-01,2020-09-19,37.1751,"OSWEGO 1 N, KS US",1,GHCND:USC00146115,METERS,-95.104,,
765,277.4,1925-01-01,2020-09-16,37.36767,"PARSONS 2 NW, KS US",1,GHCND:USC00146242,METERS,-95.2881,,
766,276.8,1948-01-01,2020-09-19,37.39017,"PITTSBURG, KS US",1,GHCND:USC00146414,METERS,-94.70242,,
767,411.5,1953-10-01,2020-09-11,37.9411,"POTWIN, KS US",1,GHCND:USC00146524,METERS,-97.0222,,
768,449.9,1953-10-01,2020-09-19,37.8235,"ROSALIA 1 NW, KS US",1,GHCND:USC00146979,METERS,-96.6383,,
769,274.3,1974-06-01,2016-07-31,37.8488,"UNIONTOWN, KS US",1,GHCND:USC00148293,METERS,-94.9765,,
770,283.5,1902-12-01,2020-09-10,37.54397,"WALNUT 4 S, KS US",1,GHCND:USC00148549,METERS,-95.04761,,
771,195.1,1915-05-01,2020-09-11,42.9291,"LOWELL, MI US",1,GHCND:USC00204944,METERS,-85.3402,,
772,368.5,1989-06-01,2014-03-01,35.31972,"STELLA, OK US",1,GHCND:USC00348479,METERS,-97.21167,,
773,1268,1941-01-01,2020-09-18,35.6201,"BRAVO, TX US",1,GHCND:USC00411033,METERS,-103.0071,,
774,1135.4,1990-01-01,1991-07-31,35.76667,"CHANNING 11 NE, TX US",1,GHCND:USC00411650,METERS,-102.15,,
775,591.3,1988-12-01,2020-09-18,41.8386,"OAK KNOLL CALIFORNIA, CA US",1,GHCND:USR0000COAK,METERS,-122.85,,
776,740.1,1993-07-01,2020-09-18,39.6681,"RODEO VALLEY, CA US",0.9853,GHCND:USR0000CROD,METERS,-123.3211,,
777,536.4,1994-04-01,2020-09-18,37.8339,"LAS TRAMPAS CALIFORNIA, CA US",0.9583,GHCND:USR0000CTRA,METERS,-122.0669,,
778,1502.1,1993-06-01,2020-09-18,41.6431,"VAN BREMMER CALIFORNIA, CA US",0.9963,GHCND:USR0000CVAN,METERS,-121.7939,,
779,1698.3,1991-10-01,2020-09-18,35.6647,"WALKER PASS CALIFORNIA, CA US",1,GHCND:USR0000CWAL,METERS,-118.0569,,
780,1502.7,1986-04-01,2020-09-18,34.5958,"WARM SPRINGS CALIFORNIA, CA US",0.8777,GHCND:USR0000CWAR,METERS,-118.5786,,
781,893.1,1990-05-01,2020-09-18,41.4789,"WEED AIRPORT CALIFORNIA, CA US",0.9999,GHCND:USR0000CWEE,METERS,-122.4539,,
782,1316.7,1993-02-01,2020-09-18,39.3167,"WHITE CLOUD CALIFORNIA, CA US",0.9426,GHCND:USR0000CWHC,METERS,-120.8375,,
783,1609.3,1986-07-01,2020-09-18,39.6725,"DESERT SPRINGS NEVADA, NV US",0.8794,GHCND:USR0000NDSS,METERS,-119.77,,
784,1249.7,1986-09-01,2014-02-26,37.2353,"ORIENTAL WASH NEVADA, NV US",1,GHCND:USR0000NORI,METERS,-117.4964,,
785,1347.2,1986-06-01,2020-09-18,42.5769,"CHILOQUIN OREGON, OR US",0.9804,GHCND:USR0000OCHI,METERS,-121.8936,,
786,1499.6,1985-05-01,2020-09-18,42.2056,"GERBER RESERVOIR OREGON, OR US",0.9892,GHCND:USR0000OGER,METERS,-121.1389,,
787,1659.6,1985-05-01,2020-09-18,42.9764,"HOYT CREEK OREGON, OR US",0.9514,GHCND:USR0000OHOY,METERS,-121.4219,,
788,1609.3,1994-06-01,2020-09-18,42.1058,"PARKER MOUNTAIN OREGON, OR US",0.9885,GHCND:USR0000OPAR,METERS,-122.2781,,
789,1703.8,1985-01-01,2020-09-18,42.1894,"STRAWBERRY OREGON, OR US",0.9574,GHCND:USR0000OSTR,METERS,-120.8464,,
790,2158,1978-09-30,2020-09-18,42.7,"SUMMER RIM, OR US",1,GHCND:USS0020G02S,METERS,-120.8,,
791,1743.5,1980-06-24,2020-09-18,42.32,"QUARTZ MOUNTAIN, OR US",1,GHCND:USS0020G06S,METERS,-120.83,,
792,1758.7,1980-06-17,2020-09-18,42.13,"STRAWBERRY, OR US",1,GHCND:USS0020G09S,METERS,-120.84,,
793,2142.7,1978-09-30,2020-09-18,41.58,"CEDAR PASS, CA US",1,GHCND:USS0020H06S,METERS,-120.3,,
794,1886.7,1984-09-01,2020-09-18,41.24,"ADIN MOUNTAIN, CA US",1,GHCND:USS0020H13S,METERS,-120.79,,
795,2089.4,1981-05-18,2020-09-18,39.33,"CSS LAB, CA US",0.9999,GHCND:USS0020K31S,METERS,-120.37,,
796,1478.3,1980-06-15,2020-09-18,43.23,"CHEMULT ALTERNATE, OR US",1,GHCND:USS0021F22S,METERS,-121.81,,
797,1533.1,1978-09-30,2020-09-18,42.69,"TAYLOR BUTTE, OR US",1,GHCND:USS0021G03S,METERS,-121.43,,
798,1819.7,1978-09-30,2020-09-18,42.44,"FOURMILE LAKE, OR US",1,GHCND:USS0022G12S,METERS,-122.23,,
799,1810.5,1980-06-12,2020-09-18,42.53,"COLD SPRINGS CAMP, OR US",1,GHCND:USS0022G24S,METERS,-122.18,,
800,1737.4,1980-06-16,2020-09-18,42.7,"SEVENMILE MARSH, OR US",1,GHCND:USS0022G33S,METERS,-122.14,,
801,-36,1950-01-01,2020-09-18,33.62667,"DESERT RESORTS REGIONAL AIRPORT, CA US",1,GHCND:USW00003104,METERS,-116.15944,,
802,27.4,1932-01-01,2020-09-18,33.8016,"TORRANCE AIRPORT, CA US",1,GHCND:USW00003122,METERS,-118.3419,,
803,22.9,1966-01-01,2018-11-16,33.3,"CAMP PENDLETON MCAS, CA US",1,GHCND:USW00003154,METERS,-117.35,,
804,1036.6,1894-03-01,2020-09-18,38.0517,"HOLLY, CO US",1,GHCND:USC00054076,METERS,-102.1316,,
805,1105.5,1893-01-01,2020-09-19,38.0936,"LAMAR, CO US",1,GHCND:USC00054770,METERS,-102.6306,,
806,1124.1,1996-07-01,2020-09-18,38.07178,"LAMAR MUNICIPAL AIRPORT, CO US",1,GHCND:USW00003013,METERS,-102.68747,,
807,894.9,1993-10-01,2020-09-19,35.7048,"SANFORD DAM, TX US",1,GHCND:USC00418040,METERS,-101.5492,,
808,930.9,1997-06-01,2020-09-18,35.695,"BORGER HUTCHINSON CO AIRPORT, TX US",1,GHCND:USW00003024,METERS,-101.395,,
809,267.6,1997-01-01,2009-11-30,34.87278,"ALLEN, OK US",0.7894,GHCND:USC00340147,METERS,-96.40361,,
810,393.8,1996-01-01,2020-09-19,35.4055,"OKLAHOMA CITY, OK US",1,GHCND:USC00346659,METERS,-97.5972,,
811,320,1990-05-01,2014-12-01,35.2594,"TECUMSEH 4 S, OK US",0.858,GHCND:USC00348751,METERS,-96.9184,,
812,304.8,1993-12-01,2000-09-30,34.96667,"TROUSDALE, OK US",0.9024,GHCND:USC00348960,METERS,-97.03333,,
813,1155.2,1967-05-01,2010-12-31,35.68306,"CHANNING 2, TX US",1,GHCND:USC00411649,METERS,-102.33,,
814,930.2,1997-10-01,2020-09-18,35.6667,"CEDAR TEXAS, TX US",1,GHCND:USR0000TCED,METERS,-101.5667,,
815,204.2,1945-08-01,2012-04-30,40.6167,"CLAUSSVILLE, PA US",1,GHCND:USC00361505,METERS,-75.65,,
816,210,1938-09-01,1982-06-30,40.68333,"NEW TRIPOLI 4 E, PA US",0.9944,GHCND:USC00366326,METERS,-75.68333,,
817,178.3,1950-01-01,2010-12-31,40.46667,"ZIONSVILLE 3 ESE, PA US",1,GHCND:USC00369995,METERS,-75.45,,
818,118.9,1948-01-01,2020-09-19,40.64985,"ALLENTOWN LEHIGH VALLEY INTERNATIONAL AIRPORT, PA US",1,GHCND:USW00014737,METERS,-75.44771,,
819,1362,1940-01-01,2014-02-01,22.8,"TAMANRASSET, AG",0.9911,GHCND:AG000060680,METERS,5.4331,,
820,2455.5,1897-01-01,2020-09-19,40.7442,"WALDEN, CO US",1,GHCND:USC00058756,METERS,-106.2792,,
821,1264.9,2003-01-01,2005-12-01,41.9338,"ANGORA 8 NE, NE US",0.9986,GHCND:USC00250208,METERS,-103.0186,,
822,1115.6,1929-05-01,2020-09-19,41.5697,"ARTHUR, NE US",1,GHCND:USC00250365,METERS,-101.6917,,
823,1178.7,2001-12-01,2007-07-31,41.815,"BAYARD 4 NNE, NE US",0.9857,GHCND:USC00250587,METERS,-103.2902,,
824,1117.4,1897-01-01,2020-09-14,41.668,"BRIDGEPORT, NE US",1,GHCND:USC00251145,METERS,-103.1038,,
825,1264.6,2002-01-01,2020-09-18,41.5638,"BRIDGEPORT 18 WSW, NE US",1,GHCND:USC00251149,METERS,-103.3677,,
826,1163.7,1935-01-01,2020-07-31,41.76093,"CRESCENT LAKE NAT WLR, NE US",1,GHCND:USC00252000,METERS,-102.43776,,
827,1303.9,1913-05-01,2018-04-26,41.4086,"DALTON, NE US",1,GHCND:USC00252145,METERS,-102.9661,,
828,1386.8,1911-06-16,2020-09-19,41.633,"HARRISBURG 12 WNW, NE US",1,GHCND:USC00253605,METERS,-103.9541,,
829,1011.3,1938-08-01,2020-09-18,41.2097,"KINGSLEY DAM, NE US",1,GHCND:USC00254455,METERS,-101.6705,,
830,1013.8,1994-05-01,2012-11-17,41.3298,"LEWELLEN, NE US",1,GHCND:USC00254755,METERS,-102.1441,,
831,1071.4,1978-05-01,2020-09-19,41.4983,"LISCO, NE US",1,GHCND:USC00254865,METERS,-102.6222,,
832,1184.5,1998-01-01,2020-09-19,41.2663,"LODGEPOLE 8 N, NE US",1,GHCND:USC00254903,METERS,-102.6585,,
833,1234.4,1924-12-01,2006-09-30,41.91694,"LYMAN, NE US",0.9817,GHCND:USC00255020,METERS,-104.03583,,
834,1243.6,1909-01-01,2017-10-31,41.948,"MITCHELL 5 E, NE US",1,GHCND:USC00255590,METERS,-103.7008,,
835,922,1917-05-01,2020-09-19,41.0569,"NORTH PLATTE EXPERIMENTAL FARM, NE US",1,GHCND:USC00256075,METERS,-100.7494,,
836,1033.3,1913-01-01,2020-08-31,41.4014,"OSHKOSH, NE US",1,GHCND:USC00256385,METERS,-102.3465,,
837,1167.4,1952-01-01,2020-08-31,41.30363,"OSHKOSH 8 SW, NE US",1,GHCND:USC00256390,METERS,-102.43739,,
838,1191.5,2002-01-01,2020-09-12,41.8644,"SCOTTSBLUFF 1 E, NE US",1,GHCND:USC00257667,METERS,-103.6397,,
839,1294.5,2002-01-01,2004-02-29,42.03083,"SCOTTSBLUFF 10 N, NE US",1,GHCND:USC00257668,METERS,-103.70222,,
840,1841.6,1969-01-01,2020-07-31,42.62336,"BATES CREEK NUMBER 2, WY US",1,GHCND:USC00480552,METERS,-106.35659,,
841,1553.6,2001-01-01,2020-09-18,42.86149,"CASPER WASTE WATER TREATMENT PLANT, WY US",1,GHCND:USC00481569,METERS,-106.29239,,
842,1567.6,2002-05-01,2020-09-19,42.85186,"CASPER 1 SW, WY US",1,GHCND:USC00481572,METERS,-106.28434,,
843,1616.7,1900-11-01,2020-08-28,41.7594,"CHUGWATER, WY US",1,GHCND:USC00481730,METERS,-104.8222,,
844,1865.4,1942-08-01,2010-12-31,42.1794,"DOUBLE FOUR RANCH, WY US",1,GHCND:USC00482680,METERS,-105.4016,,
845,1484.4,1909-04-01,2016-04-08,42.7467,"DOUGLAS 1 SE, WY US",1,GHCND:USC00482685,METERS,-105.3603,,
846,2214.4,1948-08-01,2016-11-30,41.6877,"ELK MOUNTAIN, WY US",1,GHCND:USC00482995,METERS,-106.4136,,
847,1508.2,1941-07-01,2016-03-01,42.8266,"GLENROCK 5 ESE, WY US",1,GHCND:USC00483950,METERS,-105.7877,,
848,1926,1964-01-01,2020-09-07,42.4942,"JEFFREY CITY, WY US",1,GHCND:USC00484925,METERS,-107.82908,,
849,1551.4,1987-01-01,2010-12-31,42.5155,"KEELINE 7 SW, WY US",1,GHCND:USC00485088,METERS,-104.8719,,
850,1399,1948-08-01,2010-12-31,41.6377,"LA GRANGE, WY US",1,GHCND:USC00485260,METERS,-104.1669,,
851,2176.3,1966-05-01,2020-09-19,41.34002,"LARAMIE 2 NW, WY US",1,GHCND:USC00485435,METERS,-105.60647,,
852,1839.5,1930-01-01,2020-07-31,42.1952,"LEO 6 SW, WY US",1,GHCND:USC00485525,METERS,-106.8555,,
853,2022.3,1881-11-01,2019-04-29,41.897,"MEDICINE BOW, WY US",1,GHCND:USC00486120,METERS,-106.206,,
854,1295.4,1989-12-01,2020-09-18,42.2058,"OLD FORT LARAMIE, WY US",1,GHCND:USC00486852,METERS,-104.5561,,
855,1518.5,1948-01-01,2018-12-31,41.6263,"PHILLIPS, WY US",1,GHCND:USC00487200,METERS,-104.4936,,
856,1737.4,1964-09-01,2010-12-31,43.035,"POWDER RIVER NUMBER 2, WY US",1,GHCND:USC00487376,METERS,-106.98833,,
857,2069.6,1948-01-01,2010-12-31,41.45278,"SARATOGA, WY US",1,GHCND:USC00487990,METERS,-106.80528,,
858,2084.2,1948-01-01,2011-08-31,42.1569,"SEMINOE DAM, WY US",1,GHCND:USC00488070,METERS,-106.9153,,
859,2151,1978-01-01,2019-04-30,42.3703,"SHIRLEY BASIN, WY US",1,GHCND:USC00488192,METERS,-106.1049,,
860,2389.6,1900-03-01,2015-01-01,42.46667,"SOUTH PASS CITY, WY US",1,GHCND:USC00488385,METERS,-108.8,,
861,1249.1,1922-01-01,2010-12-31,42.0802,"TORRINGTON EXPERIMENTAL FARM, WY US",1,GHCND:USC00488995,METERS,-104.2236,,
862,1481.3,1994-01-01,2020-09-18,42.488,"TORRINGTON 29 N, WY US",1,GHCND:USC00488997,METERS,-104.1563,,
863,1413.7,1893-01-01,2020-06-27,42.1106,"WHEATLAND 4 N, WY US",1,GHCND:USC00489615,METERS,-104.9492,,
864,1319.8,1921-10-01,2011-06-02,41.913,"YODER 2 WSW, WY US",1,GHCND:USC00489925,METERS,-104.388,,
865,2962.7,1985-06-01,2020-09-18,40.3517,"WILLOW CREEK COLORADO, CO US",0.9676,GHCND:USR0000CWWC,METERS,-106.2153,,
866,1603.2,2003-04-01,2013-04-22,41.51,"BRAVO 01 NEBRASKA, NE US",0.9091,GHCND:USR0000NBR1,METERS,-103.995,,
867,2249.4,1988-08-01,2020-09-18,42.3458,"CAMP CREEK WYOMING, WY US",0.982,GHCND:USR0000WCAM,METERS,-107.5528,,
868,202.7,1932-01-01,2010-12-31,37.55,"HEIDELBERG, KY US",1,GHCND:USC00153741,METERS,-83.76667,,
869,329.2,2002-01-01,2020-09-19,37.6336,"BEATTYVILLE 4 N, KY US",1,GHCND:USC00150483,METERS,-83.7161,,
870,350.5,2007-01-01,2011-08-04,37.5787,"HEIDELBERG 2 N, KY US",1,GHCND:USC00153744,METERS,-83.7659,,
871,265.8,1990-05-01,2020-09-18,37.3053,"LA HONDA CALIFORNIA, CA US",0.9967,GHCND:USR0000CLAH,METERS,-122.255,,
872,496.8,1990-05-01,2020-09-18,35.3811,"LA PANZA CALIFORNIA, CA US",0.9999,GHCND:USR0000CLAP,METERS,-120.1875,,
873,1338.1,1996-01-01,2020-09-18,35.4783,"LAURAL MOUNTAIN CALIFORNIA, CA US",1,GHCND:USR0000CLAR,METERS,-117.6989,,
874,1267.7,1990-05-01,2020-09-18,40.3442,"LASSEN LODGE CALIFORNIA, CA US",0.883,GHCND:USR0000CLAS,METERS,-121.7136,,
875,1767.8,1998-02-01,2020-09-18,40.1417,"LAUFMAN CALIFORNIA, CA US",1,GHCND:USR0000CLAU,METERS,-120.3533,,
876,554.7,2001-07-01,2020-09-18,39.7022,"LAYTONVILLE CALIFORNIA, CA US",0.9829,GHCND:USR0000CLAY,METERS,-123.485,,
877,1752.6,1988-04-01,2020-09-18,40.8072,"LADDER BUTTE CALIFORNIA, CA US",0.9762,GHCND:USR0000CLDR,METERS,-121.2967,,
878,15.2,1999-07-01,2020-09-18,34.0456,"LEO CARRILLO CALIFORNIA, CA US",0.9998,GHCND:USR0000CLEO,METERS,-118.9358,,
879,30.5,1992-10-01,2010-10-25,33.2889,"LAS FLORES CALIFORNIA, CA US",0.9631,GHCND:USR0000CLSF,METERS,-117.4389,,
880,975.4,1988-03-01,2020-09-18,39.1258,"LYONS VALLEY CALIFORNIA, CA US",0.9999,GHCND:USR0000CLYO,METERS,-123.0736,,
881,851,2002-02-01,2020-09-18,34.2339,"LYTLE CREEK CALIFORNIA, CA US",1,GHCND:USR0000CLYT,METERS,-117.4803,,
882,845.8,1999-10-01,2019-08-30,40.4633,"MAD RIVER CALIFORNIA, CA US",0.9848,GHCND:USR0000CMAD,METERS,-123.5239,,
883,1652,2000-08-01,2020-09-18,39.8075,"MENDOCINO PASS CALIFORNIA, CA US",0.7822,GHCND:USR0000CMEN,METERS,-122.945,,
884,1005.8,1999-10-01,2020-09-18,34.3175,"MORMON ROCK CALIFORNIA, CA US",0.9056,GHCND:USR0000CMOR,METERS,-117.5019,,
885,1173.2,2000-07-01,2013-10-01,37.8817,"MOUNT DIABLO CALIFORNIA, CA US",0.9998,GHCND:USR0000CMTD,METERS,-121.9142,,
886,1597.2,1989-09-01,2020-09-18,38.7333,"OWENS CAMP LOC CALIFORNIA, CA US",0.9718,GHCND:USR0000COWE,METERS,-120.245,,
887,430.7,1894-01-01,2013-12-24,39.8158,"COVELO, CA US",1,GHCND:USC00042081,METERS,-123.2444,,
888,36.6,1951-12-01,2002-05-31,41.79417,"CRESCENT CITY 7 ENE, CA US",0.934,GHCND:USC00042148,METERS,-124.085,,
889,1629.2,1959-11-01,2014-09-30,34.3175,"CRYSTAL LAKE FC238C, CA US",1,GHCND:USC00042198,METERS,-117.8419,,
890,365.8,1963-01-01,2020-08-31,33.6513,"DEEP CANYON LAB, CA US",1,GHCND:USC00042327,METERS,-116.3763,,
891,1357.9,1969-11-01,2010-12-31,39.3,"DEER CREEK FOREBAY, CA US",1,GHCND:USC00042338,METERS,-120.83333,,
892,1066.8,1896-01-01,2010-12-31,32.85,"DESCANSO RANGER STATION, CA US",1,GHCND:USC00042406,METERS,-116.61667,,
893,499.9,1970-01-01,2010-12-31,39.3575,"DOBBINS 1 S, CA US",1,GHCND:USC00042456,METERS,-121.2011,,
894,33.5,1906-03-01,2012-09-30,33.9297,"DOWNEY FIRE STATION FC107C, CA US",1,GHCND:USC00042494,METERS,-118.1455,,
895,367.3,1910-01-01,2010-12-31,39.35917,"EAST PARK RESERVOIR, CA US",1,GHCND:USC00042640,METERS,-122.51778,,
896,150.9,1979-11-01,2020-09-15,32.8005,"EL CAJON, CA US",1,GHCND:USC00042706,METERS,-116.928,,
897,2939.8,1924-11-01,2010-12-31,37.9355,"ELLERY LAKE, CA US",1,GHCND:USC00042756,METERS,-119.2305,,
898,899.2,1971-01-01,2010-12-31,34.5891,"EL MIRAGE, CA US",1,GHCND:USC00042771,METERS,-117.6302,,
899,182.9,1979-05-01,2020-09-15,33.121,"ESCONDIDO NUMBER 2, CA US",1,GHCND:USC00042863,METERS,-117.09,,
900,134.7,1950-12-01,2020-07-31,37.585,"EXCHEQUER DAM, CA US",1,GHCND:USC00042920,METERS,-120.2672,,
901,86.9,1942-12-01,2020-07-31,36.3642,"FIVE POINTS 5 SSW, CA US",1,GHCND:USC00043083,METERS,-120.1561,,
902,106.7,1955-10-01,2010-12-31,38.7,"FOLSOM DAM, CA US",1,GHCND:USC00043113,METERS,-121.16667,,
903,147.8,1964-02-01,2010-12-31,32.88333,"GOLD ROCK RANCH, CA US",1,GHCND:USC00043489,METERS,-114.86667,,
904,225.6,1954-04-01,2019-05-23,43.4494,"READSTOWN, WI US",1,GHCND:USC00477015,METERS,-90.765,,
905,451.1,1949-01-01,2020-09-18,40.29639,"ALTOONA BLAIR CO AIRPORT, PA US",1,GHCND:USW00014736,METERS,-78.32028,,
906,30.4,1941-01-01,2020-09-19,-12.4239,"DARWIN AIRPORT, AS",1,GHCND:ASN00014015,METERS,130.8925,,
907,35,1963-02-01,2014-03-31,-12.4429,"BERRIMAH RESEARCH FARM, AS",0.8258,GHCND:ASN00014116,METERS,130.9325,,
908,25,1883-06-01,2002-11-08,-12.538,"BELYUEN, AS",0.2434,GHCND:ASN00014129,METERS,130.6985,,
909,35,1967-12-01,2004-04-30,-12.4509,"ELEVEN MILE RAAF, AS",0.9748,GHCND:ASN00014172,METERS,130.9575,,
910,16.5,1975-11-01,2010-05-17,-12.4124,"COX PENINSULA TRANSMITTER, AS",0.9856,GHCND:ASN00014201,METERS,130.6264,,
911,20,1968-12-01,2002-05-31,-12.4331,"PARAP, AS",0.8807,GHCND:ASN00014218,METERS,130.8409,,
912,16,1987-04-01,2020-09-19,-12.3887,"KARAMA, AS",0.9229,GHCND:ASN00014227,METERS,130.9248,,
913,30,1987-11-01,2016-12-31,-12.4019,"NORTHLAKES, AS",0.6302,GHCND:ASN00014235,METERS,130.8961,,
914,10,1989-11-01,2020-09-19,-12.3784,"LEANYER, AS",1,GHCND:ASN00014246,METERS,130.9057,,
915,16,1967-01-01,2014-01-31,-12.3833,"NIGHTCLIFF SPORTS CLUB, AS",0.5876,GHCND:ASN00014270,METERS,130.85,,
916,30,1941-02-02,2020-09-18,-12.4227,"DARWIN AIRPORT COMPARISON, AS",0.9682,GHCND:ASN00014040,METERS,130.8844,,
917,34,1964-10-01,2020-09-18,-12.4558,"HOWARD SPRINGS, AS",0.8366,GHCND:ASN00014149,METERS,131.0505,,
918,5,1964-03-01,2004-02-29,-12.399,"COCONUT GROVE, AS",0.9333,GHCND:ASN00014162,METERS,130.8508,,
919,15.2,1884-01-01,2020-09-09,-12.4396,"DARWIN BOTANIC GARDENS, AS",0.4288,GHCND:ASN00014163,METERS,130.8376,,
920,15,1982-12-01,1998-12-07,-12.3622,"CASUARINA, AS",0.9533,GHCND:ASN00014216,METERS,130.8797,,
921,10,1932-02-01,2018-01-30,-12.5547,"CHANNEL ISLAND, AS",0.4529,GHCND:ASN00014009,METERS,130.8677,,
922,25,1983-09-01,2002-04-30,-12.47,DARWIN GOVERNMENT HOUSE,0.8037,GHCND:ASN00014217,METERS,130.8408,,
923,30,1988-09-01,2020-09-19,-12.4346,"WAGAIT BEACH, AS",0.9304,GHCND:ASN00014238,METERS,130.7491,,
924,15,1990-01-01,1996-08-31,-12.5047,"WOODROFFE, AS",0.9993,GHCND:ASN00014250,METERS,130.9747,,
925,6,1991-11-01,2020-08-16,-12.3602,"SHOAL BAY, AS",0.9282,GHCND:ASN00014259,METERS,130.9829,,
926,2,1991-11-01,2013-12-31,-12.4261,"LUDMILLA, AS",0.8744,GHCND:ASN00014261,METERS,130.853,,
927,30,1992-01-01,2020-09-18,-12.4126,"CSIRO BERRIMAH, AS",0.9001,GHCND:ASN00014265,METERS,130.9202,,
928,25,1992-01-01,2020-09-18,-12.4121,"THORAK CEMETERY, AS",0.8691,GHCND:ASN00014266,METERS,130.9669,,
929,30.5,1967-12-01,2014-09-26,-12.4582,"LARRAKEYAH, AS",0.7722,GHCND:ASN00014170,METERS,130.8283,,
930,20,1995-11-01,2020-08-28,-12.3551,"DARWIN HOSPITAL, AS",0.9468,GHCND:ASN00014285,METERS,130.8857,,
931,15,1996-08-01,2004-06-30,-12.5015,"MARLOW LAGOON, AS",0.9995,GHCND:ASN00014287,METERS,130.9642,,
932,6.1,1899-11-01,2020-07-31,42.7594,"HAVERHILL, MA US",1,GHCND:USC00193505,METERS,-71.0602,,
933,9.1,1992-01-01,2020-09-18,42.7467,"GROVELAND, MA US",1,GHCND:USC00193276,METERS,-71.0426,,
934,264.9,1996-07-01,2020-09-18,37.32778,"PARSONS TRI CITY AIRPORT, KS US",1,GHCND:USW00003998,METERS,-95.50417,,
935,350.5,1996-07-01,2020-09-18,37.16806,"WINFIELD STROTHER FIELD AIRPORT, KS US",1,GHCND:USW00013932,METERS,-97.03694,,
936,274.6,1973-04-01,2020-09-12,37.0485,"BARTLETT, KS US",1,GHCND:USC00140548,METERS,-95.2142,,
937,302.4,1997-01-01,2020-09-19,37.6728,"CHANUTE 4 E, KS US",1,GHCND:USC00141428,METERS,-95.3784,,
938,273.4,1943-07-01,2020-09-18,37.5668,"ERIE, KS US",1,GHCND:USC00142582,METERS,-95.24583,,
939,307.8,1958-09-01,2020-09-12,37.2225,"HALE, KS US",1,GHCND:USC00143331,METERS,-96.0546,,
940,286.5,1982-09-01,2020-09-19,37.8118,"HUMBOLDT, KS US",1,GHCND:USC00143867,METERS,-95.4456,,
941,405.4,1977-12-01,2020-09-16,37.5338,"SMILEYBERG 1 N, KS US",1,GHCND:USC00147534,METERS,-96.8813,,
942,229.2,1996-07-01,2020-09-18,37.09111,"COFFEYVILLE MUNICIPAL AIRPORT, KS US",1,GHCND:USW00093967,METERS,-95.56639,,
943,276.5,1998-11-01,2017-05-18,37.2757,"BIG HILL LAKE, KS US",1,GHCND:USC00140810,METERS,-95.4728,,
944,2555.7,1909-11-01,2010-12-31,40.4725,"SPICER, CO US",1,GHCND:USC00057848,METERS,-106.4475,,
945,2094,1961-12-01,1987-01-31,42.73333,"ALCOVA 17 NW, WY US",0.8542,GHCND:USC00480091,METERS,-107.01667,,
946,2490.2,1899-02-01,2010-12-31,41.3136,"CENTENNIAL 1 NE, WY US",1,GHCND:USC00481610,METERS,-106.1291,,
947,2250.9,1948-08-01,2010-12-31,41.18333,"ENCAMPMENT 10 ESE, WY US",1,GHCND:USC00483045,METERS,-106.61667,,
948,1961.1,1949-11-01,1987-06-30,42.66667,"GLENROCK 14 SSE, WY US",0.9935,GHCND:USC00483960,METERS,-105.81667,,
949,1327.4,1962-01-01,2020-07-31,42.2905,"GUERNSEY DAM NUMBER 2, WY US",0.6062,GHCND:USC00484126,METERS,-104.7625,,
950,1609.3,1953-01-01,1987-02-28,42.76667,"KEELINE 3 W, WY US",1,GHCND:USC00485085,METERS,-104.78333,,
951,1267.4,1952-01-01,2020-09-09,42.1298,"LINGLE 2 WSW, WY US",1,GHCND:USC00485612,METERS,-104.3899,,
952,1805.3,1905-10-01,2020-08-31,42.47165,"PATHFINDER DAM, WY US",1,GHCND:USC00487105,METERS,-106.85268,,
953,1855,1964-01-01,2020-08-31,41.76444,"SYBILLE RESEARCH UNI, WY US",1,GHCND:USC00488808,METERS,-105.375,,
954,1308.8,1949-04-01,2020-07-31,42.2494,"WHALEN DAM USBR, WY US",1,GHCND:USC00489604,METERS,-104.628,,
955,3115.1,1978-09-30,2020-09-18,40.81,"DEADMAN HILL, CO US",1,GHCND:USS0005J06S,METERS,-105.77,,
956,2792,1978-09-30,2020-09-18,40.39,"COLUMBINE, CO US",1,GHCND:USS0006J03S,METERS,-106.6,,
957,1464.6,1948-01-01,1995-01-31,42.7444,"DOUGLAS, WY US",0.9292,GHCND:USW00024019,METERS,-105.3897,,
958,2214.7,1948-01-01,2020-09-18,41.3167,"LARAMIE AIRPORT, WY US",1,GHCND:USW00024022,METERS,-105.6833,,
959,2.1,1893-01-01,2020-09-19,40.6825,"NEWARK LIBERTY INTERNATIONAL AIRPORT, NJ US",1,GHCND:USW00014734,METERS,-74.1694,,
960,14.9,1892-01-01,2020-08-09,30.6669,"FERNANDINA BEACH, FL US",1,GHCND:USC00082944,METERS,-81.4525,,
961,39,1919-12-01,2020-09-18,30.2717,"GLEN ST MARY 1 W, FL US",1,GHCND:USC00083470,METERS,-82.1856,,
962,7.9,1938-04-01,2020-09-19,30.495,"JACKSONVILLE INTERNATIONAL AIRPORT, FL US",1,GHCND:USW00013889,METERS,-81.6936,,
963,25.3,1947-01-01,2010-12-31,30.21667,"JACKSONVILLE CECIL FIELD NAS, FL US",1,GHCND:USW00093832,METERS,-81.88333,,
